[{"name":"Mixed Greens","radius":5,"significance":"Ipsum","fillKey":"United States","longitude":-73.986581,"latitude":40.730599},{"name":"Jonathan Novak Contemporary Art","radius":5,"significance":"Ipsum","fillKey":"United States","longitude":-118.396559,"latitude":34.082573},{"name":"KLOMPCHING GALLERY","radius":5,"significance":"Ipsum","fillKey":"United States","longitude":-73.989093,"latitude":40.702593},{"name":"","radius":5,"significance":"Ipsum","fillKey":"Brazil","longitude":-46.633965,"latitude":-23.550328},{"name":"","radius":5,"significance":"Ipsum","fillKey":"Netherlands","longitude":4.900112,"latitude":52.371009},{"name":"Annet Gelink Gallery","radius":5,"significance":"Ipsum","fillKey":"Netherlands","longitude":4.900112,"latitude":52.371009},{"name":"ZieherSmith","radius":5,"significance":"Ipsum","fillKey":"United States","longitude":-74.006086,"latitude":40.745954},{"name":"Valentine Willie Fine Art","radius":5,"significance":"Ipsum","fillKey":"France","longitude":2.352133,"latitude":48.856506},{"name":"Hadrien de Montferrand","radius":5,"significance":"Ipsum","fillKey":"China","longitude":116.625089,"latitude":40.250538},{"name":"Cristin Tierney","radius":5,"significance":"Ipsum","fillKey":"United States","longitude":-73.986581,"latitude":40.730599},{"name":"","radius":5,"significance":"Ipsum","fillKey":"United Kingdom","longitude":-0.133382,"latitude":51.51698},{"name":"","radius":5,"significance":"Ipsum","fillKey":"United States","longitude":-74.004523,"latitude":40.749615},{"name":"","radius":5,"significance":"Ipsum","fillKey":"United Kingdom","longitude":-0.138846,"latitude":51.51649},{"name":"","radius":5,"significance":"Ipsum","fillKey":"United Kingdom","longitude":-0.12766,"latitude":51.507276},{"name":"Annely Juda Fine Art","radius":5,"significance":"Ipsum","fillKey":"United Kingdom","longitude":-0.146046,"latitude":51.514517},{"name":"","radius":5,"significance":"Ipsum","fillKey":"United Kingdom","longitude":-0.12766,"latitude":51.507276},{"name":"","radius":5,"significance":"Ipsum","fillKey":"United Kingdom","longitude":-0.12766,"latitude":51.507276},{"name":"","radius":5,"significance":"Ipsum","fillKey":"United Kingdom","longitude":-0.074349,"latitude":51.524852},{"name":"","radius":5,"significance":"Ipsum","fillKey":"United Kingdom","longitude":-0.12766,"latitude":51.507276},{"name":"Alan Cristea Gallery","radius":5,"significance":"Ipsum","fillKey":"United Kingdom","longitude":-0.141187,"latitude":51.509987},{"name":"","radius":5,"significance":"Ipsum","fillKey":"United Kingdom","longitude":-0.141252,"latitude":51.513643},{"name":"","radius":5,"significance":"Ipsum","fillKey":"United Kingdom","longitude":-0.055675,"latitude":51.534515999999996},{"name":"Casey Kaplan","radius":5,"significance":"Ipsum","fillKey":"United States","longitude":-74.005798,"latitude":40.746788},{"name":"Lehmann Maupin","radius":5,"significance":"Ipsum","fillKey":"US","longitude":-74.005824,"latitude":40.747426},{"name":"Estate of David Smith","radius":5,"significance":"Ipsum","fillKey":"United States","longitude":-73.986581,"latitude":40.730599},{"name":"","radius":5,"significance":"Ipsum","fillKey":"United States","longitude":-74.006093,"latitude":40.747539},{"name":"Shanghai Gallery of Art","radius":5,"significance":"Ipsum","fillKey":"China","longitude":121.488892,"latitude":31.225344},{"name":"Edelman Arts","radius":5,"significance":"Ipsum","fillKey":"United States","longitude":-73.986581,"latitude":40.730599},{"name":"Winkleman Gallery","radius":5,"significance":"Ipsum","fillKey":"USA","longitude":-74.005729,"latitude":40.751725},{"name":"","radius":5,"significance":"Ipsum","fillKey":"United States","longitude":-74.002122,"latitude":40.723139},{"name":"","radius":5,"significance":"Ipsum","fillKey":"Italy","longitude":10.219534,"latitude":45.539835},{"name":"art:concept","radius":5,"significance":"Ipsum","fillKey":"France","longitude":2.366587,"latitude":48.859658},{"name":"L.A. Louver","radius":5,"significance":"Ipsum","fillKey":"United States","longitude":-118.459534,"latitude":33.990718},{"name":"","radius":5,"significance":"Ipsum","fillKey":"United States","longitude":-87.624371,"latitude":41.875621},{"name":"","radius":5,"significance":"Ipsum","fillKey":"Switzerland","longitude":6.146601,"latitude":46.201756},{"name":"","radius":5,"significance":"Ipsum","fillKey":"Portugal","longitude":-9.132895,"latitude":38.7129},{"name":"Schroeder Romero","radius":5,"significance":"Ipsum","fillKey":"United States","longitude":-74.003658,"latitude":40.750053},{"name":"","radius":5,"significance":"Ipsum","fillKey":"United States","longitude":-118.387806,"latitude":34.081126},{"name":"Yancey Richardson Gallery","radius":5,"significance":"Ipsum","fillKey":"United States","longitude":-73.986581,"latitude":40.730599},{"name":"","radius":5,"significance":"Ipsum","fillKey":"United States","longitude":-73.986581,"latitude":40.730599},{"name":"Ruth Benzacar Galería de Arte","radius":5,"significance":"Ipsum","fillKey":"Argentina","longitude":-58.491769,"latitude":-34.532439},{"name":"","radius":5,"significance":"Ipsum","fillKey":"Germany","longitude":6.958023,"latitude":50.937486},{"name":"","radius":5,"significance":"Ipsum","fillKey":"Switzerland","longitude":7.596991,"latitude":47.542989},{"name":"","radius":5,"significance":"Ipsum","fillKey":"Norway","longitude":10.739111,"latitude":59.913269},{"name":"Galerie Gebr. Lehmann","radius":5,"significance":"Ipsum","fillKey":"Germany","longitude":13.754893,"latitude":51.067726},{"name":"Contemporary Fine Arts","radius":5,"significance":"Ipsum","fillKey":"Germany","longitude":13.394516,"latitude":52.520968},{"name":"","radius":5,"significance":"Ipsum","fillKey":"United States","longitude":-73.986581,"latitude":40.730599},{"name":"","radius":5,"significance":"Ipsum","fillKey":"United Kingdom","longitude":-0.127647,"latitude":51.507322},{"name":"","radius":5,"significance":"Ipsum","fillKey":"Thailand","longitude":100.494122,"latitude":13.752944},{"name":"Galerie Barbara Weiss","radius":5,"significance":"Ipsum","fillKey":"Germany","longitude":13.418928,"latitude":52.49657},{"name":"Vera Munro","radius":5,"significance":"Ipsum","fillKey":"Germany","longitude":9.993916,"latitude":53.583077},{"name":"","radius":5,"significance":"Ipsum","fillKey":"Germany","longitude":13.38886,"latitude":52.517036},{"name":"Bernier/Eliades","radius":5,"significance":"Ipsum","fillKey":"Greece","longitude":23.727984,"latitude":37.984149},{"name":"","radius":5,"significance":"Ipsum","fillKey":"France","longitude":2.361005,"latitude":48.861461},{"name":"","radius":5,"significance":"Ipsum","fillKey":"Denmark","longitude":12.570072,"latitude":55.686724},{"name":"","radius":5,"significance":"Ipsum","fillKey":"Germany","longitude":10.000654,"latitude":53.550341},{"name":"","radius":5,"significance":"Ipsum","fillKey":"Germany","longitude":7.458606,"latitude":54.07317},{"name":"Acquavella Galleries","radius":5,"significance":"Ipsum","fillKey":"United States","longitude":-73.96318,"latitude":40.776669},{"name":"Victoria Miro","radius":5,"significance":"Ipsum","fillKey":"United Kingdom","longitude":-0.095503,"latitude":51.530716},{"name":"","radius":5,"significance":"Ipsum","fillKey":"United States","longitude":-73.986581,"latitude":40.730599},{"name":"","radius":5,"significance":"Ipsum","fillKey":"France","longitude":2.354066,"latitude":48.86204},{"name":"","radius":5,"significance":"Ipsum","fillKey":"United States","longitude":-74.005199,"latitude":40.744052},{"name":"Galerie Guido W. Baudach","radius":5,"significance":"Ipsum","fillKey":"Germany","longitude":13.38886,"latitude":52.517036},{"name":"","radius":5,"significance":"Ipsum","fillKey":"GB","longitude":-0.127647,"latitude":51.507322},{"name":"Kohn Gallery","radius":5,"significance":"Ipsum","fillKey":"United States","longitude":-118.242702,"latitude":34.053678},{"name":"","radius":5,"significance":"Ipsum","fillKey":"Austria","longitude":16.373091,"latitude":48.208467},{"name":"","radius":5,"significance":"Ipsum","fillKey":"United States","longitude":-74.003189,"latitude":40.749668},{"name":"","radius":5,"significance":"Ipsum","fillKey":"United States","longitude":-73.986581,"latitude":40.730599},{"name":"Pearl Lam Galleries","radius":5,"significance":"Ipsum","fillKey":"China","longitude":121.488892,"latitude":31.225344},{"name":"","radius":5,"significance":"Ipsum","fillKey":"Switzerland","longitude":8.540443,"latitude":47.368559},{"name":"","radius":5,"significance":"Ipsum","fillKey":"France","longitude":2.363712,"latitude":48.860687},{"name":"","radius":5,"significance":"Ipsum","fillKey":"Germany","longitude":11.578302,"latitude":48.144772},{"name":"Goodman Gallery","radius":5,"significance":"Ipsum","fillKey":"South Africa","longitude":28.049722,"latitude":-26.205},{"name":"","radius":5,"significance":"Ipsum","fillKey":"Switzerland","longitude":7.596991,"latitude":47.542989},{"name":"Galería Elba Benítez","radius":5,"significance":"Ipsum","fillKey":"Spain","longitude":-3.703582,"latitude":40.416705},{"name":"","radius":5,"significance":"Ipsum","fillKey":"United States","longitude":-73.949582,"latitude":40.650104},{"name":"Gemini G.E.L.","radius":5,"significance":"Ipsum","fillKey":"United States","longitude":-118.242702,"latitude":34.053678},{"name":"Galerie Rodolphe Janssen","radius":5,"significance":"Ipsum","fillKey":"Belgium","longitude":4.367488,"latitude":50.843409},{"name":"","radius":5,"significance":"Ipsum","fillKey":"France","longitude":2.352133,"latitude":48.856506},{"name":"","radius":5,"significance":"Ipsum","fillKey":"Germany","longitude":13.38886,"latitude":52.517036},{"name":"Dvir Gallery","radius":5,"significance":"Ipsum","fillKey":"IL","longitude":34.780527,"latitude":32.080481},{"name":"","radius":5,"significance":"Ipsum","fillKey":"United States","longitude":-73.986581,"latitude":40.730599},{"name":"","radius":5,"significance":"Ipsum","fillKey":"Germany","longitude":10.000654,"latitude":53.550341},{"name":"A Gentil Carioca","radius":5,"significance":"Ipsum","fillKey":"Brazil","longitude":-43.209378,"latitude":-22.911216},{"name":"Almine Rech","radius":5,"significance":"Ipsum","fillKey":"France","longitude":2.364541,"latitude":48.85946},{"name":"","radius":5,"significance":"Ipsum","fillKey":"Sweden","longitude":18.071094,"latitude":59.325117},{"name":"","radius":5,"significance":"Ipsum","fillKey":"United States","longitude":-73.986581,"latitude":40.730599},{"name":"Galeria Fortes Vilaça","radius":5,"significance":"Ipsum","fillKey":"Brazil","longitude":-49.023235,"latitude":-21.954981},{"name":"Galeria Millan","radius":5,"significance":"Ipsum","fillKey":"Brazil","longitude":-49.023235,"latitude":-21.954981},{"name":"","radius":5,"significance":"Ipsum","fillKey":"Germany","longitude":13.38886,"latitude":52.517036},{"name":"","radius":5,"significance":"Ipsum","fillKey":"","longitude":13.38886,"latitude":52.517036},{"name":"Galerie Perrotin","radius":5,"significance":"Ipsum","fillKey":"France","longitude":2.364674,"latitude":48.860499},{"name":"Galerie Thomas","radius":5,"significance":"Ipsum","fillKey":"Germany","longitude":11.57374,"latitude":48.14661},{"name":"","radius":5,"significance":"Ipsum","fillKey":"Austria","longitude":16.375267,"latitude":48.207367},{"name":"","radius":5,"significance":"Ipsum","fillKey":"Mexico","longitude":-99.158129,"latitude":19.422584},{"name":"","radius":5,"significance":"Ipsum","fillKey":"Italy","longitude":12.48921,"latitude":41.891421},{"name":"","radius":5,"significance":"Ipsum","fillKey":"France","longitude":2.352133,"latitude":48.856506},{"name":"","radius":5,"significance":"Ipsum","fillKey":"United Kingdom","longitude":-0.108137,"latitude":51.491193},{"name":"Yvon Lambert","radius":5,"significance":"Ipsum","fillKey":"France","longitude":2.3628080000000002,"latitude":48.860964},{"name":"Timothy Taylor Gallery","radius":5,"significance":"Ipsum","fillKey":"United Kingdom","longitude":-0.149932,"latitude":51.511088},{"name":"","radius":5,"significance":"Ipsum","fillKey":"United States","longitude":-73.964756,"latitude":40.774785},{"name":"","radius":5,"significance":"Ipsum","fillKey":"United Kingdom","longitude":-0.12766,"latitude":51.507276},{"name":"","radius":5,"significance":"Ipsum","fillKey":"Italy","longitude":10.993554,"latitude":45.438222},{"name":"","radius":5,"significance":"Ipsum","fillKey":"United Kingdom","longitude":-0.141322,"latitude":51.511053},{"name":"","radius":5,"significance":"Ipsum","fillKey":"United Kingdom","longitude":-0.142942,"latitude":51.50821},{"name":"Sadie Coles HQ","radius":5,"significance":"Ipsum","fillKey":"US","longitude":-84.083265,"latitude":37.128977},{"name":"Richard L. Feigen & Co.","radius":5,"significance":"Ipsum","fillKey":"United States","longitude":-73.966548,"latitude":40.769627},{"name":"","radius":5,"significance":"Ipsum","fillKey":"France","longitude":2.336722,"latitude":48.855324},{"name":"","radius":5,"significance":"Ipsum","fillKey":"Japan","longitude":139.768522,"latitude":35.680071},{"name":"Metro Pictures","radius":5,"significance":"Ipsum","fillKey":"United States","longitude":-74.004244,"latitude":40.748685},{"name":"Johann König","radius":5,"significance":"Ipsum","fillKey":"Germany","longitude":13.378714,"latitude":52.505172},{"name":"","radius":5,"significance":"Ipsum","fillKey":"Germany","longitude":13.439694,"latitude":52.500275},{"name":"","radius":5,"significance":"Ipsum","fillKey":"Germany","longitude":11.581893,"latitude":48.139384},{"name":"Gerald Peters Gallery","radius":5,"significance":"Ipsum","fillKey":"United States","longitude":-73.963331,"latitude":40.775841},{"name":"","radius":5,"significance":"Ipsum","fillKey":"United States","longitude":-73.959526,"latitude":40.780989},{"name":"GRAHAM","radius":5,"significance":"Ipsum","fillKey":"United States","longitude":-73.986581,"latitude":40.730599},{"name":"Samsøñ","radius":5,"significance":"Ipsum","fillKey":"United States","longitude":-71.074646,"latitude":42.334165},{"name":"Menconi+Schoelkopf","radius":5,"significance":"Ipsum","fillKey":"United States","longitude":-73.986581,"latitude":40.730599},{"name":"","radius":5,"significance":"Ipsum","fillKey":"Switzerland","longitude":8.549322,"latitude":47.370219},{"name":"James Reinish & Associates","radius":5,"significance":"Ipsum","fillKey":"United States","longitude":-73.965135,"latitude":40.772777},{"name":"bitforms gallery","radius":5,"significance":"Ipsum","fillKey":"United States","longitude":-73.990344,"latitude":40.720125},{"name":"","radius":5,"significance":"Ipsum","fillKey":"United States","longitude":-73.99116,"latitude":40.719212},{"name":"Blackston","radius":5,"significance":"Ipsum","fillKey":"United States","longitude":-73.991222,"latitude":40.714514},{"name":"McCormick Gallery","radius":5,"significance":"Ipsum","fillKey":"United States","longitude":-87.648948,"latitude":41.882872},{"name":" Horton Gallery","radius":5,"significance":"Ipsum","fillKey":"United States","longitude":-73.986581,"latitude":40.730599},{"name":"","radius":5,"significance":"Ipsum","fillKey":"United States","longitude":-73.986581,"latitude":40.730599},{"name":"","radius":5,"significance":"Ipsum","fillKey":"United Kingdom","longitude":-0.127647,"latitude":51.507322},{"name":"Ana Cristea Gallery","radius":5,"significance":"Ipsum","fillKey":"United States","longitude":-74.003397,"latitude":40.749944},{"name":"Galeria Nara Roesler","radius":5,"significance":"Ipsum","fillKey":"Brazil","longitude":-46.633965,"latitude":-23.550328},{"name":"","radius":5,"significance":"Ipsum","fillKey":"Netherlands","longitude":4.900112,"latitude":52.371009},{"name":"","radius":5,"significance":"Ipsum","fillKey":"United Kingdom","longitude":-0.143276,"latitude":51.51115},{"name":"","radius":5,"significance":"Ipsum","fillKey":"United Kingdom","longitude":-0.140569,"latitude":51.509849},{"name":"","radius":5,"significance":"Ipsum","fillKey":"United Kingdom","longitude":-0.146557,"latitude":51.513477},{"name":"Goodman Gallery","radius":5,"significance":"Ipsum","fillKey":"South Africa","longitude":18.417248,"latitude":-33.928905},{"name":"David Zwirner","radius":5,"significance":"Ipsum","fillKey":"United States","longitude":-73.986581,"latitude":40.730599},{"name":"David Zwirner","radius":5,"significance":"Ipsum","fillKey":"United Kingdom","longitude":-0.142975,"latitude":51.509439},{"name":"ShanghART","radius":5,"significance":"Ipsum","fillKey":"China","longitude":121.488892,"latitude":31.225344},{"name":"ShanghART","radius":5,"significance":"Ipsum","fillKey":"China","longitude":121.509203,"latitude":31.303287},{"name":"ShanghART","radius":5,"significance":"Ipsum","fillKey":"China","longitude":116.625089,"latitude":40.250538},{"name":"Pace Gallery","radius":5,"significance":"Ipsum","fillKey":"United States","longitude":-74.004951,"latitude":40.749448},{"name":"Pace Gallery","radius":5,"significance":"Ipsum","fillKey":"United States","longitude":-74.004034,"latitude":40.749061},{"name":"Pace Gallery","radius":5,"significance":"Ipsum","fillKey":"China","longitude":116.625089,"latitude":40.250538},{"name":"Pace Gallery","radius":5,"significance":"Ipsum","fillKey":"United States","longitude":-73.972095,"latitude":40.76186},{"name":"","radius":5,"significance":"Ipsum","fillKey":"United States","longitude":-122.401825,"latitude":37.787272},{"name":"","radius":5,"significance":"Ipsum","fillKey":"United States","longitude":-73.986581,"latitude":40.730599},{"name":"Mary Boone Gallery","radius":5,"significance":"Ipsum","fillKey":"United States","longitude":-73.986581,"latitude":40.730599},{"name":"Mary Boone Gallery","radius":5,"significance":"Ipsum","fillKey":"United States","longitude":-74.004819,"latitude":40.748927},{"name":"Pavel Zoubok Gallery","radius":5,"significance":"Ipsum","fillKey":"United States","longitude":-74.003658,"latitude":40.750053},{"name":"Claire Oliver","radius":5,"significance":"Ipsum","fillKey":"United States","longitude":-74.003188,"latitude":40.749856},{"name":"Gagosian Gallery","radius":5,"significance":"Ipsum","fillKey":"United States","longitude":-74.006501,"latitude":40.746754},{"name":"Gagosian Gallery","radius":5,"significance":"Ipsum","fillKey":"United States","longitude":-73.963467,"latitude":40.774745},{"name":"Gagosian Gallery","radius":5,"significance":"Ipsum","fillKey":"United States","longitude":-74.005898,"latitude":40.749446},{"name":"Pékin Fine Arts","radius":5,"significance":"Ipsum","fillKey":"China","longitude":116.625089,"latitude":40.250538},{"name":"","radius":5,"significance":"Ipsum","fillKey":"United States","longitude":-73.986581,"latitude":40.730599},{"name":"Walter Wickiser Gallery","radius":5,"significance":"Ipsum","fillKey":"United States","longitude":-73.986581,"latitude":40.730599},{"name":"Kathryn Markel Fine Arts","radius":5,"significance":"Ipsum","fillKey":"United States","longitude":-73.986581,"latitude":40.730599},{"name":"Hollis Taggart Galleries","radius":5,"significance":"Ipsum","fillKey":"United States","longitude":-73.986581,"latitude":40.730599},{"name":"","radius":5,"significance":"Ipsum","fillKey":"United States","longitude":-73.986581,"latitude":40.730599},{"name":"La Montagne Gallery","radius":5,"significance":"Ipsum","fillKey":"United States","longitude":-71.055692,"latitude":42.340103},{"name":"Aperture Foundation","radius":5,"significance":"Ipsum","fillKey":"United States","longitude":-73.986581,"latitude":40.730599},{"name":"","radius":5,"significance":"Ipsum","fillKey":"United States","longitude":-73.986581,"latitude":40.730599},{"name":"Rick Wester Fine Art","radius":5,"significance":"Ipsum","fillKey":"United States","longitude":-73.986581,"latitude":40.730599},{"name":"","radius":5,"significance":"Ipsum","fillKey":"United States","longitude":-118.460013,"latitude":33.990116},{"name":"","radius":5,"significance":"Ipsum","fillKey":"United States","longitude":-73.986581,"latitude":40.730599},{"name":"Stellan Holm Gallery","radius":5,"significance":"Ipsum","fillKey":"United States","longitude":-73.962515,"latitude":40.775955},{"name":"","radius":5,"significance":"Ipsum","fillKey":"United States","longitude":-73.966085,"latitude":40.76616},{"name":"Forum Gallery","radius":5,"significance":"Ipsum","fillKey":"United States","longitude":-118.406293,"latitude":34.082573},{"name":"D. Wigmore Fine Art","radius":5,"significance":"Ipsum","fillKey":"United States","longitude":-73.974306,"latitude":40.762807},{"name":"Hirschl & Adler Modern","radius":5,"significance":"Ipsum","fillKey":"United States","longitude":-73.986581,"latitude":40.730599},{"name":"Angles Gallery","radius":5,"significance":"Ipsum","fillKey":"United States","longitude":-118.396559,"latitude":34.082573},{"name":"IKON Ltd. Contemporary Art","radius":5,"significance":"Ipsum","fillKey":"United States","longitude":-118.495458,"latitude":34.013765},{"name":"Eva Breuer Art Dealer","radius":5,"significance":"Ipsum","fillKey":"Australia","longitude":151.241389,"latitude":-33.885556},{"name":"","radius":5,"significance":"Ipsum","fillKey":"United States","longitude":-74.006577,"latitude":40.745397},{"name":"","radius":5,"significance":"Ipsum","fillKey":"US","longitude":-118.242727,"latitude":34.053717},{"name":"","radius":5,"significance":"Ipsum","fillKey":"United States","longitude":-118.396559,"latitude":34.082573},{"name":"","radius":5,"significance":"Ipsum","fillKey":"United States","longitude":-118.396559,"latitude":34.082573},{"name":"Elizabeth Dee","radius":5,"significance":"Ipsum","fillKey":"United States","longitude":-73.986581,"latitude":40.730599},{"name":"Long March Space","radius":5,"significance":"Ipsum","fillKey":"China","longitude":116.457102,"latitude":39.905505},{"name":"","radius":5,"significance":"Ipsum","fillKey":"United States","longitude":-118.242702,"latitude":34.053678},{"name":"","radius":5,"significance":"Ipsum","fillKey":"US","longitude":-118.22455,"latitude":34.040154},{"name":"","radius":5,"significance":"Ipsum","fillKey":"United States","longitude":-118.396559,"latitude":34.082573},{"name":"Brand New Gallery","radius":5,"significance":"Ipsum","fillKey":"Italy","longitude":9.186326,"latitude":45.496904},{"name":"Galeria Marilia Razuk","radius":5,"significance":"Ipsum","fillKey":"BR","longitude":-46.637365,"latitude":-23.54764},{"name":"Ignacio Liprandi Arte Contemporáneo","radius":5,"significance":"Ipsum","fillKey":"Argentina","longitude":-58.445979,"latitude":-34.612869},{"name":"Roberts & Tilton","radius":5,"significance":"Ipsum","fillKey":"United States","longitude":-118.391869,"latitude":34.025036},{"name":"","radius":5,"significance":"Ipsum","fillKey":"United States","longitude":-73.966587,"latitude":40.77147},{"name":"","radius":5,"significance":"Ipsum","fillKey":"United States","longitude":-73.986581,"latitude":40.730599},{"name":"DODGEgallery","radius":5,"significance":"Ipsum","fillKey":"United States","longitude":-73.99261,"latitude":40.721148},{"name":"","radius":5,"significance":"Ipsum","fillKey":"Argentina","longitude":-58.445979,"latitude":-34.612869},{"name":"","radius":5,"significance":"Ipsum","fillKey":"United States","longitude":-74.002481,"latitude":40.750103},{"name":"","radius":5,"significance":"Ipsum","fillKey":"United States","longitude":-74.003096,"latitude":40.750781},{"name":"","radius":5,"significance":"Ipsum","fillKey":"United Kingdom","longitude":-0.14182,"latitude":51.508927},{"name":"","radius":5,"significance":"Ipsum","fillKey":"United Kingdom","longitude":-0.12766,"latitude":51.507276},{"name":"","radius":5,"significance":"Ipsum","fillKey":"United States","longitude":-73.963663,"latitude":40.773969},{"name":"Galleria d'Arte Maggiore G.A.M.","radius":5,"significance":"Ipsum","fillKey":"Italy","longitude":11.343035,"latitude":44.493671},{"name":"Rockbund Art Museum","radius":5,"significance":"Ipsum","fillKey":"China","longitude":121.488892,"latitude":31.225344},{"name":"Rhona Hoffman Gallery","radius":5,"significance":"Ipsum","fillKey":"United States","longitude":-87.650099,"latitude":41.88383},{"name":"Mike Weiss Gallery","radius":5,"significance":"Ipsum","fillKey":"United States","longitude":-73.986581,"latitude":40.730599},{"name":"Bernarducci.Meisel Gallery","radius":5,"significance":"Ipsum","fillKey":"United States","longitude":-73.986581,"latitude":40.730599},{"name":"","radius":5,"significance":"Ipsum","fillKey":"United States","longitude":-73.986581,"latitude":40.730599},{"name":"Nature Morte","radius":5,"significance":"Ipsum","fillKey":"India","longitude":77.215956,"latitude":28.613897},{"name":"Nature Morte","radius":5,"significance":"Ipsum","fillKey":"India","longitude":77.029915,"latitude":28.464472},{"name":"Nature Morte","radius":5,"significance":"Ipsum","fillKey":"Germany","longitude":13.411903,"latitude":52.526153},{"name":"Nature Morte","radius":5,"significance":"Ipsum","fillKey":"India","longitude":77.215956,"latitude":28.613897},{"name":"","radius":5,"significance":"Ipsum","fillKey":"","longitude":-118.396559,"latitude":34.082573},{"name":"","radius":5,"significance":"Ipsum","fillKey":"United States","longitude":-74.003983,"latitude":40.748575},{"name":"ACA Galleries","radius":5,"significance":"Ipsum","fillKey":"United States","longitude":-73.986581,"latitude":40.730599},{"name":"Danziger Gallery","radius":5,"significance":"Ipsum","fillKey":"United States","longitude":-74.004862,"latitude":40.748291},{"name":"Carolina Nitsch Contemporary Art","radius":5,"significance":"Ipsum","fillKey":"United States","longitude":-74.000991,"latitude":40.724671},{"name":"Francis M. Naumann Fine Art","radius":5,"significance":"Ipsum","fillKey":"United States","longitude":-73.986581,"latitude":40.730599},{"name":"Carolina Nitsch Contemporary Art","radius":5,"significance":"Ipsum","fillKey":"United States","longitude":-74.00573,"latitude":40.747385},{"name":"Western Project","radius":5,"significance":"Ipsum","fillKey":"United States","longitude":-118.396559,"latitude":34.082573},{"name":"","radius":5,"significance":"Ipsum","fillKey":"China","longitude":116.625089,"latitude":40.250538},{"name":"","radius":5,"significance":"Ipsum","fillKey":"United Kingdom","longitude":-0.081605,"latitude":51.52733},{"name":"Leila Heller Gallery","radius":5,"significance":"Ipsum","fillKey":"United States","longitude":-74.005202,"latitude":40.749714},{"name":"Pace/MacGill Gallery","radius":5,"significance":"Ipsum","fillKey":"United States","longitude":-73.986581,"latitude":40.730599},{"name":"","radius":5,"significance":"Ipsum","fillKey":"United States","longitude":-118.396559,"latitude":34.082573},{"name":"CARDI GALLERY","radius":5,"significance":"Ipsum","fillKey":"Italy","longitude":9.192176,"latitude":45.477486},{"name":"Bryce Wolkowitz Gallery","radius":5,"significance":"Ipsum","fillKey":"United States","longitude":-74.003878,"latitude":40.748531},{"name":"Museum of Arts and Design","radius":5,"significance":"Ipsum","fillKey":"United States","longitude":-73.98201,"latitude":40.767385},{"name":"","radius":5,"significance":"Ipsum","fillKey":"United States","longitude":-73.986581,"latitude":40.730599},{"name":"","radius":5,"significance":"Ipsum","fillKey":"United States","longitude":-75.30463,"latitude":40.019834},{"name":"","radius":5,"significance":"Ipsum","fillKey":"","longitude":-73.986581,"latitude":40.730599},{"name":"Tamarind Institute","radius":5,"significance":"Ipsum","fillKey":"United States","longitude":-106.618029,"latitude":35.08072},{"name":"Gallery Paule Anglim","radius":5,"significance":"Ipsum","fillKey":"United States","longitude":-122.403817,"latitude":37.788005},{"name":"","radius":5,"significance":"Ipsum","fillKey":"United States","longitude":-73.99283,"latitude":40.722346},{"name":"Peres Projects","radius":5,"significance":"Ipsum","fillKey":"Germany","longitude":13.438514,"latitude":52.517011},{"name":"","radius":5,"significance":"Ipsum","fillKey":"United States","longitude":-73.991261,"latitude":40.715603},{"name":"Tibor de Nagy","radius":5,"significance":"Ipsum","fillKey":"United States","longitude":-73.986581,"latitude":40.730599},{"name":"","radius":5,"significance":"Ipsum","fillKey":"United States","longitude":-73.956262,"latitude":40.786315},{"name":"","radius":5,"significance":"Ipsum","fillKey":"United States","longitude":-73.992825,"latitude":40.722559},{"name":"","radius":5,"significance":"Ipsum","fillKey":"United States","longitude":-73.992777,"latitude":40.721539},{"name":"Marlborough Gallery","radius":5,"significance":"Ipsum","fillKey":"United States","longitude":-73.986581,"latitude":40.730599},{"name":"","radius":5,"significance":"Ipsum","fillKey":"United States","longitude":-118.238445,"latitude":34.066105},{"name":"White Cube","radius":5,"significance":"Ipsum","fillKey":"United Kingdom","longitude":-0.082382,"latitude":51.499419},{"name":"White Cube","radius":5,"significance":"Ipsum","fillKey":"United Kingdom","longitude":-0.137219,"latitude":51.507441},{"name":"White Cube","radius":5,"significance":"Ipsum","fillKey":"China","longitude":104.999927,"latitude":35.000074},{"name":"Thierry Goldberg Projects","radius":5,"significance":"Ipsum","fillKey":"USA","longitude":-73.987277,"latitude":40.718806},{"name":"Tabla Rasa","radius":5,"significance":"Ipsum","fillKey":"United States","longitude":-74.015266,"latitude":40.649633},{"name":"","radius":5,"significance":"Ipsum","fillKey":"United Kingdom","longitude":-0.076408,"latitude":51.524314},{"name":"Page Blackie Gallery","radius":5,"significance":"Ipsum","fillKey":"New Zealand","longitude":174.776187,"latitude":-41.288615},{"name":"","radius":5,"significance":"Ipsum","fillKey":"Germany","longitude":13.38886,"latitude":52.517036},{"name":"Meyer Riegger","radius":5,"significance":"Ipsum","fillKey":"Germany","longitude":13.38886,"latitude":52.517036},{"name":"Meyer Riegger","radius":5,"significance":"Ipsum","fillKey":"Germany","longitude":8.404121,"latitude":49.010576},{"name":"","radius":5,"significance":"Ipsum","fillKey":"United Kingdom","longitude":-0.035772,"latitude":51.519075},{"name":"","radius":5,"significance":"Ipsum","fillKey":"United States","longitude":-73.986581,"latitude":40.730599},{"name":"Locust Projects","radius":5,"significance":"Ipsum","fillKey":"United States","longitude":-80.195493,"latitude":25.812282},{"name":"","radius":5,"significance":"Ipsum","fillKey":"United States","longitude":-74.006556,"latitude":40.74692},{"name":"","radius":5,"significance":"Ipsum","fillKey":"United Kingdom","longitude":-0.138846,"latitude":51.51649},{"name":"STPI","radius":5,"significance":"Ipsum","fillKey":"Singapore","longitude":103.852888,"latitude":1.29093},{"name":"Lisa Cooley ","radius":5,"significance":"Ipsum","fillKey":"United States","longitude":-73.987349,"latitude":40.718992},{"name":"Leslie Tonkonow Artworks + Projects","radius":5,"significance":"Ipsum","fillKey":"United States","longitude":-73.986581,"latitude":40.730599},{"name":"Lehmann Maupin","radius":5,"significance":"Ipsum","fillKey":"United States","longitude":-73.992084,"latitude":40.722273},{"name":"","radius":5,"significance":"Ipsum","fillKey":"Norway","longitude":10.739111,"latitude":59.913269},{"name":"","radius":5,"significance":"Ipsum","fillKey":"Germany","longitude":6.763756,"latitude":51.223538},{"name":"","radius":5,"significance":"Ipsum","fillKey":"Germany","longitude":13.39804,"latitude":52.506515},{"name":"","radius":5,"significance":"Ipsum","fillKey":"Germany","longitude":13.364559,"latitude":52.501377},{"name":"","radius":5,"significance":"Ipsum","fillKey":"Germany","longitude":13.395402,"latitude":52.528057},{"name":"","radius":5,"significance":"Ipsum","fillKey":"Germany","longitude":13.393997,"latitude":52.527676},{"name":"Josée Bienvenu","radius":5,"significance":"Ipsum","fillKey":"US","longitude":-73.986581,"latitude":40.730599},{"name":"Jonathan LeVine Gallery","radius":5,"significance":"Ipsum","fillKey":"United States","longitude":-73.986581,"latitude":40.730599},{"name":"Johnen Galerie","radius":5,"significance":"Ipsum","fillKey":"Germany","longitude":13.382492,"latitude":52.521914},{"name":"Eli Ridgway","radius":5,"significance":"Ipsum","fillKey":"United States","longitude":-122.398515,"latitude":37.788164},{"name":"Ameringer | McEnery | Yohe","radius":5,"significance":"Ipsum","fillKey":"US","longitude":-74.005064,"latitude":40.747292},{"name":"","radius":5,"significance":"Ipsum","fillKey":"","longitude":-106.897269,"latitude":39.211088},{"name":"","radius":5,"significance":"Ipsum","fillKey":"","longitude":-74.00505,"latitude":40.747286},{"name":"","radius":5,"significance":"Ipsum","fillKey":"Germany","longitude":13.38886,"latitude":52.517036},{"name":"","radius":5,"significance":"Ipsum","fillKey":"","longitude":-73.986581,"latitude":40.730599},{"name":"Ballroom Marfa","radius":5,"significance":"Ipsum","fillKey":"","longitude":-104.01517,"latitude":30.310947},{"name":"Barbara Thumm","radius":5,"significance":"Ipsum","fillKey":"Germany","longitude":13.38886,"latitude":52.517036},{"name":"Baró Galeria","radius":5,"significance":"Ipsum","fillKey":"Brazil","longitude":-39.336623,"latitude":-7.021246},{"name":"","radius":5,"significance":"Ipsum","fillKey":"China","longitude":116.625089,"latitude":40.250538},{"name":"","radius":5,"significance":"Ipsum","fillKey":"Germany","longitude":13.41225,"latitude":52.526254},{"name":"Buchmann Galerie","radius":5,"significance":"Ipsum","fillKey":"Germany","longitude":13.38886,"latitude":52.517036},{"name":"Buchmann Galerie","radius":5,"significance":"Ipsum","fillKey":"Switzerland","longitude":8.910374,"latitude":45.964336},{"name":"","radius":5,"significance":"Ipsum","fillKey":"Switzerland","longitude":6.146601,"latitude":46.201756},{"name":"","radius":5,"significance":"Ipsum","fillKey":"","longitude":-73.986581,"latitude":40.730599},{"name":"Callicoon Fine Arts","radius":5,"significance":"Ipsum","fillKey":"","longitude":-73.981859,"latitude":40.718113},{"name":"","radius":5,"significance":"Ipsum","fillKey":"Germany","longitude":13.417837,"latitude":52.52179},{"name":"","radius":5,"significance":"Ipsum","fillKey":"United Arab Emirates","longitude":55.296193,"latitude":25.268353},{"name":"carlier | gebauer","radius":5,"significance":"Ipsum","fillKey":"Germany","longitude":13.38886,"latitude":52.517036},{"name":"Catherine E. Burns Fine Prints","radius":5,"significance":"Ipsum","fillKey":"","longitude":-122.229703,"latitude":37.826859},{"name":"Judith Charles Gallery","radius":5,"significance":"Ipsum","fillKey":"","longitude":-73.99405,"latitude":40.721307},{"name":"Crown Point Press","radius":5,"significance":"Ipsum","fillKey":"United States","longitude":-122.399292,"latitude":37.785722},{"name":"","radius":5,"significance":"Ipsum","fillKey":"Germany","longitude":13.38886,"latitude":52.517036},{"name":"","radius":5,"significance":"Ipsum","fillKey":"United States","longitude":-73.986581,"latitude":40.730599},{"name":"David Risley Gallery","radius":5,"significance":"Ipsum","fillKey":"Denmark","longitude":12.588684,"latitude":55.682422},{"name":"Debra Force Fine Art","radius":5,"significance":"Ipsum","fillKey":"United States","longitude":-73.965921,"latitude":40.772785},{"name":"","radius":5,"significance":"Ipsum","fillKey":"Belgium","longitude":3.424537,"latitude":50.809291},{"name":"Dorian Grey","radius":5,"significance":"Ipsum","fillKey":"United States","longitude":-73.983159,"latitude":40.727641},{"name":"Dunham Place Salon","radius":5,"significance":"Ipsum","fillKey":"United States","longitude":-73.986581,"latitude":40.730599},{"name":"","radius":5,"significance":"Ipsum","fillKey":"Germany","longitude":13.38886,"latitude":52.517036},{"name":"","radius":5,"significance":"Ipsum","fillKey":"Germany","longitude":12.374705,"latitude":51.340462},{"name":"","radius":5,"significance":"Ipsum","fillKey":"Germany","longitude":13.38886,"latitude":52.517036},{"name":"","radius":5,"significance":"Ipsum","fillKey":"Germany","longitude":13.363473,"latitude":52.500275},{"name":"","radius":5,"significance":"Ipsum","fillKey":"Germany","longitude":7.192196,"latitude":51.443776},{"name":"","radius":5,"significance":"Ipsum","fillKey":"Switzerland","longitude":8.540443,"latitude":47.368559},{"name":"Galerie Mehdi Chouakri","radius":5,"significance":"Ipsum","fillKey":"Germany","longitude":13.385391,"latitude":52.531046},{"name":"Galerie Michael Haas","radius":5,"significance":"Ipsum","fillKey":"Germany","longitude":13.31797,"latitude":52.504256},{"name":"","radius":5,"significance":"Ipsum","fillKey":"France","longitude":2.375284,"latitude":48.854211},{"name":"","radius":5,"significance":"Ipsum","fillKey":"Canada","longitude":-79.447872,"latitude":43.652182},{"name":"","radius":5,"significance":"Ipsum","fillKey":"Germany","longitude":13.422678,"latitude":52.51371},{"name":"","radius":5,"significance":"Ipsum","fillKey":"Norway","longitude":10.739111,"latitude":59.913269},{"name":"Godel & Co.","radius":5,"significance":"Ipsum","fillKey":"United States","longitude":-73.965084,"latitude":40.771728},{"name":"Green Art Gallery","radius":5,"significance":"Ipsum","fillKey":"United Arab Emirates","longitude":55.296193,"latitude":25.268353},{"name":"Hamiltons Gallery","radius":5,"significance":"Ipsum","fillKey":"United Kingdom","longitude":-0.149932,"latitude":51.511088},{"name":"","radius":5,"significance":"Ipsum","fillKey":"United States","longitude":-81.978173,"latitude":30.201296},{"name":"","radius":5,"significance":"Ipsum","fillKey":"United States","longitude":-73.955747,"latitude":40.712264},{"name":"ICP","radius":5,"significance":"Ipsum","fillKey":"United States","longitude":-73.986581,"latitude":40.730599},{"name":"Indianapolis Museum of Art","radius":5,"significance":"Ipsum","fillKey":"United States","longitude":-86.158045,"latitude":39.76838},{"name":"","radius":5,"significance":"Ipsum","fillKey":"Germany","longitude":13.365607,"latitude":52.505576},{"name":"","radius":5,"significance":"Ipsum","fillKey":"Italy","longitude":9.209164,"latitude":45.474149},{"name":"John Berggruen Gallery","radius":5,"significance":"Ipsum","fillKey":"United States","longitude":-122.419199,"latitude":37.77896},{"name":"Lori Bookstein Fine Art","radius":5,"significance":"Ipsum","fillKey":"United States","longitude":-73.986581,"latitude":40.730599},{"name":"Los Angeles County Museum of Art","radius":5,"significance":"Ipsum","fillKey":"United States","longitude":-118.396559,"latitude":34.082573},{"name":"","radius":5,"significance":"Ipsum","fillKey":"United States","longitude":-118.370971,"latitude":34.033811},{"name":"Mixografia","radius":5,"significance":"Ipsum","fillKey":"United States","longitude":-118.248154,"latitude":34.015671},{"name":"Monica De Cardenas","radius":5,"significance":"Ipsum","fillKey":"Italy","longitude":7.8381039999999995,"latitude":43.825217},{"name":"","radius":5,"significance":"Ipsum","fillKey":"United States","longitude":-118.180353,"latitude":33.774399},{"name":"National Gallery of Art, Washington, D.C.","radius":5,"significance":"Ipsum","fillKey":"United States","longitude":-77.019174,"latitude":38.892075},{"name":"Nora Fisch","radius":5,"significance":"Ipsum","fillKey":"Argentina","longitude":-58.445979,"latitude":-34.612869},{"name":"Office Baroque","radius":5,"significance":"Ipsum","fillKey":"Belgium","longitude":4.343545,"latitude":50.848118},{"name":"","radius":5,"significance":"Ipsum","fillKey":"Denmark","longitude":12.586404,"latitude":55.68531},{"name":"Peter Fetterman Gallery","radius":5,"significance":"Ipsum","fillKey":"United States","longitude":-118.495458,"latitude":34.013765},{"name":"","radius":5,"significance":"Ipsum","fillKey":"United States","longitude":-73.986581,"latitude":40.730599},{"name":"","radius":5,"significance":"Ipsum","fillKey":"United States","longitude":-73.986581,"latitude":40.730599},{"name":"","radius":5,"significance":"Ipsum","fillKey":"France","longitude":2.352133,"latitude":48.856506},{"name":"PSM","radius":5,"significance":"Ipsum","fillKey":"Germany","longitude":13.427752,"latitude":52.50755},{"name":"Raster","radius":5,"significance":"Ipsum","fillKey":"Poland","longitude":21.006209,"latitude":52.227677},{"name":"","radius":5,"significance":"Ipsum","fillKey":"Switzerland","longitude":6.146601,"latitude":46.201756},{"name":"Rokeby Gallery","radius":5,"significance":"Ipsum","fillKey":"United Kingdom","longitude":-0.111076,"latitude":51.524141},{"name":"","radius":5,"significance":"Ipsum","fillKey":"Belgium","longitude":3.300895,"latitude":51.354804},{"name":"","radius":5,"significance":"Ipsum","fillKey":"United States","longitude":-89.383761,"latitude":43.074761},{"name":"Tang Contemporary Art","radius":5,"significance":"Ipsum","fillKey":"China","longitude":116.625089,"latitude":40.250538},{"name":"Tang Contemporary Art","radius":5,"significance":"Ipsum","fillKey":"Thailand","longitude":100.416084,"latitude":13.585927},{"name":"Tanya Leighton","radius":5,"significance":"Ipsum","fillKey":"Germany","longitude":13.364201,"latitude":52.499414},{"name":"","radius":5,"significance":"Ipsum","fillKey":"United States","longitude":-118.480994,"latitude":33.997116},{"name":"The Guild","radius":5,"significance":"Ipsum","fillKey":"India","longitude":72.832711,"latitude":18.95238},{"name":"Universal Limited Art Editions","radius":5,"significance":"Ipsum","fillKey":"United States","longitude":-73.266748,"latitude":40.747341},{"name":"","radius":5,"significance":"Ipsum","fillKey":"United States","longitude":-72.93066,"latitude":41.307958},{"name":"Gerald Peters Gallery","radius":5,"significance":"Ipsum","fillKey":"United States","longitude":-105.933914,"latitude":35.682765},{"name":"","radius":5,"significance":"Ipsum","fillKey":"United Kingdom","longitude":-0.12766,"latitude":51.507276},{"name":"","radius":5,"significance":"Ipsum","fillKey":"Hong Kong","longitude":114.158101,"latitude":22.278795},{"name":"","radius":5,"significance":"Ipsum","fillKey":"United Kingdom","longitude":-0.137184,"latitude":51.511634},{"name":"David Zwirner","radius":5,"significance":"Ipsum","fillKey":"United States","longitude":-74.006424,"latitude":40.746286},{"name":"Robert Mann Gallery","radius":5,"significance":"Ipsum","fillKey":"","longitude":-74.003502,"latitude":40.749988},{"name":"Galerie Thomas","radius":5,"significance":"Ipsum","fillKey":"Germany","longitude":11.582899,"latitude":48.138654},{"name":"","radius":5,"significance":"Ipsum","fillKey":"France","longitude":1.888334,"latitude":46.603354},{"name":"","radius":5,"significance":"Ipsum","fillKey":"Austria","longitude":13.043189,"latitude":47.804313},{"name":"","radius":5,"significance":"Ipsum","fillKey":"Austria","longitude":13.041059,"latitude":47.800198},{"name":"Lower East Side Printshop ","radius":5,"significance":"Ipsum","fillKey":"United States","longitude":-73.986581,"latitude":40.730599},{"name":"","radius":5,"significance":"Ipsum","fillKey":"United Kingdom","longitude":-0.143208,"latitude":51.512738},{"name":"","radius":5,"significance":"Ipsum","fillKey":"Sweden","longitude":18.071094,"latitude":59.325117},{"name":"","radius":5,"significance":"Ipsum","fillKey":"United States","longitude":-84.373843,"latitude":33.839956},{"name":"Stephen Daiter Gallery","radius":5,"significance":"Ipsum","fillKey":"United States","longitude":-87.624371,"latitude":41.875621},{"name":"","radius":5,"significance":"Ipsum","fillKey":"France","longitude":2.311424,"latitude":48.870142},{"name":"Folio Test Partner","radius":5,"significance":"Ipsum","fillKey":"USA","longitude":-73.986581,"latitude":40.730599},{"name":"Folio Test Partner","radius":5,"significance":"Ipsum","fillKey":"usa","longitude":-73.986581,"latitude":40.730599},{"name":"Pearl Lam Galleries","radius":5,"significance":"Ipsum","fillKey":"","longitude":114.160258,"latitude":22.281322},{"name":"Gallery Diet","radius":5,"significance":"Ipsum","fillKey":"United States","longitude":-80.198744,"latitude":25.799064},{"name":"","radius":5,"significance":"Ipsum","fillKey":"United States","longitude":-118.396466,"latitude":34.021122},{"name":"Tambaran","radius":5,"significance":"Ipsum","fillKey":"United States","longitude":-73.986581,"latitude":40.730599},{"name":"Aspen Art Museum","radius":5,"significance":"Ipsum","fillKey":"","longitude":-106.817162,"latitude":39.194346},{"name":"Carpenters Workshop Gallery","radius":5,"significance":"Ipsum","fillKey":"France","longitude":2.352417,"latitude":48.858205},{"name":"Carpenters Workshop Gallery","radius":5,"significance":"Ipsum","fillKey":"United Kingdom","longitude":-0.12766,"latitude":51.507276},{"name":"Carpenters Workshop Gallery","radius":5,"significance":"Ipsum","fillKey":"United Kingdom","longitude":-0.12766,"latitude":51.507276},{"name":"Design Space","radius":5,"significance":"Ipsum","fillKey":"Israel","longitude":34.780527,"latitude":32.080481},{"name":"","radius":5,"significance":"Ipsum","fillKey":"Italy","longitude":11.255576,"latitude":43.769871},{"name":"","radius":5,"significance":"Ipsum","fillKey":"Netherlands","longitude":5.48784,"latitude":51.43406},{"name":"","radius":5,"significance":"Ipsum","fillKey":"Belgium","longitude":4.369035,"latitude":50.819443},{"name":"Carwan Gallery","radius":5,"significance":"Ipsum","fillKey":"Lebanon","longitude":35.47843,"latitude":33.89592},{"name":"Cristina Grajales Gallery","radius":5,"significance":"Ipsum","fillKey":"","longitude":-73.986581,"latitude":40.730599},{"name":"","radius":5,"significance":"Ipsum","fillKey":"","longitude":-74.005937,"latitude":40.747473},{"name":"","radius":5,"significance":"Ipsum","fillKey":"","longitude":2.352133,"latitude":48.856506},{"name":"Erastudio Apartment Gallery","radius":5,"significance":"Ipsum","fillKey":"Italy","longitude":9.185369,"latitude":45.475298},{"name":"ammann//gallery","radius":5,"significance":"Ipsum","fillKey":"Germany","longitude":6.96355,"latitude":50.919200000000004},{"name":"Galerie BSL","radius":5,"significance":"Ipsum","fillKey":"France","longitude":2.361596,"latitude":48.862099},{"name":"","radius":5,"significance":"Ipsum","fillKey":"France","longitude":2.352133,"latitude":48.856506},{"name":"Galerie Jacques Lacoste","radius":5,"significance":"Ipsum","fillKey":"France","longitude":2.336489,"latitude":48.85667},{"name":"Galerie kreo","radius":5,"significance":"Ipsum","fillKey":"France","longitude":2.339549,"latitude":48.854884},{"name":"Galerie VIVID","radius":5,"significance":"Ipsum","fillKey":"Netherlands","longitude":4.463173,"latitude":51.922896},{"name":"","radius":5,"significance":"Ipsum","fillKey":"Italy","longitude":9.190617,"latitude":45.466621},{"name":"SEOMI International","radius":5,"significance":"Ipsum","fillKey":"South Korea","longitude":127.092867,"latitude":37.463825},{"name":"","radius":5,"significance":"Ipsum","fillKey":"","longitude":-73.986581,"latitude":40.730599},{"name":"","radius":5,"significance":"Ipsum","fillKey":"","longitude":-77.036646,"latitude":38.894955},{"name":"","radius":5,"significance":"Ipsum","fillKey":"","longitude":-118.396559,"latitude":34.082573},{"name":"Jason Jacques Inc.","radius":5,"significance":"Ipsum","fillKey":"United States ","longitude":-73.9649977,"latitude":40.7727559},{"name":"","radius":5,"significance":"Ipsum","fillKey":"USA","longitude":-73.922447,"latitude":40.740416},{"name":"","radius":5,"significance":"Ipsum","fillKey":"France","longitude":2.336576,"latitude":48.856029},{"name":"","radius":5,"significance":"Ipsum","fillKey":"France","longitude":2.366719,"latitude":48.860145},{"name":"Magen H Gallery","radius":5,"significance":"Ipsum","fillKey":"USA","longitude":-73.992808,"latitude":40.732994},{"name":"","radius":5,"significance":"Ipsum","fillKey":"","longitude":-73.78574,"latitude":42.248825},{"name":"Moderne Gallery","radius":5,"significance":"Ipsum","fillKey":"","longitude":-75.163789,"latitude":39.952335},{"name":"","radius":5,"significance":"Ipsum","fillKey":"Italy","longitude":9.195187,"latitude":45.471603},{"name":"","radius":5,"significance":"Ipsum","fillKey":"","longitude":-73.790116,"latitude":42.252178},{"name":"","radius":5,"significance":"Ipsum","fillKey":"Belgium","longitude":4.369583,"latitude":50.817041},{"name":"","radius":5,"significance":"Ipsum","fillKey":"Netherlands","longitude":5.748082,"latitude":52.50017},{"name":"R & Company","radius":5,"significance":"Ipsum","fillKey":"US","longitude":-74.004538,"latitude":40.718146},{"name":"Venice Projects","radius":5,"significance":"Ipsum","fillKey":"Italy","longitude":12.320145,"latitude":45.430819},{"name":"","radius":5,"significance":"Ipsum","fillKey":"Belgium","longitude":4.6669599999999996,"latitude":50.640735},{"name":"","radius":5,"significance":"Ipsum","fillKey":"","longitude":-87.624371,"latitude":41.875621},{"name":"","radius":5,"significance":"Ipsum","fillKey":"US","longitude":-87.200805,"latitude":30.83852},{"name":"","radius":5,"significance":"Ipsum","fillKey":"USA","longitude":-118.242702,"latitude":34.053678},{"name":"","radius":5,"significance":"Ipsum","fillKey":"","longitude":-118.180353,"latitude":33.774399},{"name":"C24 Gallery","radius":5,"significance":"Ipsum","fillKey":"US","longitude":-74.004484,"latitude":40.751223},{"name":"Howard Greenberg Gallery","radius":5,"significance":"Ipsum","fillKey":"USA","longitude":-73.986581,"latitude":40.730599},{"name":"","radius":5,"significance":"Ipsum","fillKey":"","longitude":-93.275215,"latitude":44.957201},{"name":"","radius":5,"significance":"Ipsum","fillKey":"","longitude":-73.986581,"latitude":40.730599},{"name":"Porter Contemporary","radius":5,"significance":"Ipsum","fillKey":"USA","longitude":-74.004115,"latitude":40.751661},{"name":"Vivian Horan Fine Art","radius":5,"significance":"Ipsum","fillKey":"US","longitude":-73.986581,"latitude":40.730599},{"name":"Galerie Nathalie Obadia","radius":5,"significance":"Ipsum","fillKey":"France","longitude":2.351756,"latitude":48.858795},{"name":"Galerie Nathalie Obadia","radius":5,"significance":"Ipsum","fillKey":"France","longitude":2.356266,"latitude":48.857411},{"name":"Galerie Nathalie Obadia","radius":5,"significance":"Ipsum","fillKey":"Belgium","longitude":4.3675370000000004,"latitude":50.827999},{"name":"Loock Galerie","radius":5,"significance":"Ipsum","fillKey":"Germany","longitude":13.367123,"latitude":52.504635},{"name":"Ingleby Gallery","radius":5,"significance":"Ipsum","fillKey":"United Kingdom","longitude":-3.193272,"latitude":55.94834},{"name":"Galerie Lelong","radius":5,"significance":"Ipsum","fillKey":"USA","longitude":-74.003711,"latitude":40.749887},{"name":"Galerie Lelong","radius":5,"significance":"Ipsum","fillKey":"France","longitude":2.31264,"latitude":48.87684},{"name":"Upstream Gallery","radius":5,"significance":"Ipsum","fillKey":"Netherlands","longitude":4.900112,"latitude":52.371009},{"name":"SEOMI International","radius":5,"significance":"Ipsum","fillKey":"United States","longitude":-118.39165,"latitude":34.116669},{"name":"","radius":5,"significance":"Ipsum","fillKey":"USA","longitude":-106.817965,"latitude":39.188618},{"name":"","radius":5,"significance":"Ipsum","fillKey":"","longitude":-73.986581,"latitude":40.730599},{"name":"Galerie Anhava","radius":5,"significance":"Ipsum","fillKey":"Finland","longitude":24.935525,"latitude":60.165563},{"name":"Galeria Raquel Arnaud","radius":5,"significance":"Ipsum","fillKey":"Brasil","longitude":-39.336623,"latitude":-7.021246},{"name":"","radius":5,"significance":"Ipsum","fillKey":"USA","longitude":-73.966203,"latitude":40.773093},{"name":"alexander levy","radius":5,"significance":"Ipsum","fillKey":"Germany","longitude":13.394375,"latitude":52.506958},{"name":"Galerie Forsblom","radius":5,"significance":"Ipsum","fillKey":"Finland","longitude":24.939828,"latitude":60.166936},{"name":"Ludorff","radius":5,"significance":"Ipsum","fillKey":"Germany","longitude":6.778583,"latitude":51.226533},{"name":"Fondation Beyeler","radius":5,"significance":"Ipsum","fillKey":"Switzerland ","longitude":7.631029,"latitude":47.576662},{"name":"Renaissance Society","radius":5,"significance":"Ipsum","fillKey":"United States","longitude":-87.624371,"latitude":41.875621},{"name":"British Museum","radius":5,"significance":"Ipsum","fillKey":"England","longitude":-0.125901,"latitude":51.518275},{"name":"","radius":5,"significance":"Ipsum","fillKey":"","longitude":-72.931236,"latitude":41.308367},{"name":"Galleri Brandstrup","radius":5,"significance":"Ipsum","fillKey":"Norway","longitude":10.722048,"latitude":59.908054},{"name":"","radius":5,"significance":"Ipsum","fillKey":"USA","longitude":-73.986581,"latitude":40.730599},{"name":"","radius":5,"significance":"Ipsum","fillKey":"Italy","longitude":9.190537,"latitude":45.466797},{"name":"Ricco/Maresca Gallery","radius":5,"significance":"Ipsum","fillKey":"US","longitude":-74.006896,"latitude":40.746631},{"name":"","radius":5,"significance":"Ipsum","fillKey":"France","longitude":2.337902,"latitude":48.855385},{"name":"","radius":5,"significance":"Ipsum","fillKey":"","longitude":-118.396559,"latitude":34.082573},{"name":"Patrick Parrish Gallery","radius":5,"significance":"Ipsum","fillKey":"USA","longitude":-74.0032581,"latitude":40.7195278},{"name":"Galeria Lucia de la Puente","radius":5,"significance":"Ipsum","fillKey":"Peru","longitude":-77.020275,"latitude":-12.143952},{"name":"Hannah Barry Gallery","radius":5,"significance":"Ipsum","fillKey":"United Kingdom","longitude":-0.069625,"latitude":51.470239},{"name":"Galerie Hervé Bize","radius":5,"significance":"Ipsum","fillKey":"FRANCE","longitude":6.181229,"latitude":48.692453},{"name":"Noire Gallery","radius":5,"significance":"Ipsum","fillKey":"Italy","longitude":7.685972,"latitude":45.07092},{"name":"Oriol Galeria d'Art","radius":5,"significance":"Ipsum","fillKey":"Spain","longitude":2.15942,"latitude":41.391636},{"name":"Mike Karstens Galerie","radius":5,"significance":"Ipsum","fillKey":"Germany","longitude":7.625188,"latitude":51.96251},{"name":"Fredric Snitzer Gallery","radius":5,"significance":"Ipsum","fillKey":"USA","longitude":-80.198481,"latitude":25.798553},{"name":"Pace Prints","radius":5,"significance":"Ipsum","fillKey":"United States","longitude":-73.972195,"latitude":40.762124},{"name":"Pace Prints","radius":5,"significance":"Ipsum","fillKey":"United States","longitude":-74.003397,"latitude":40.749944},{"name":"Leslie Sacks Fine Art","radius":5,"significance":"Ipsum","fillKey":"","longitude":-118.396559,"latitude":34.082573},{"name":"DIE GALERIE","radius":5,"significance":"Ipsum","fillKey":"Germany","longitude":7.458606,"latitude":54.07317},{"name":"","radius":5,"significance":"Ipsum","fillKey":"","longitude":-73.958006,"latitude":40.784586},{"name":"Vistamare","radius":5,"significance":"Ipsum","fillKey":"Italy","longitude":14.213864,"latitude":42.461934},{"name":"Simon Capstick-Dale Fine Art","radius":5,"significance":"Ipsum","fillKey":"USA","longitude":-73.964694,"latitude":40.771564},{"name":"David Klein Gallery","radius":5,"significance":"Ipsum","fillKey":"U.S.","longitude":114.042688,"latitude":22.31286},{"name":"Galerie Sho Contemporary Art","radius":5,"significance":"Ipsum","fillKey":"Japan","longitude":139.768522,"latitude":35.680071},{"name":"i8 Gallery","radius":5,"significance":"Ipsum","fillKey":"Iceland","longitude":-21.943103,"latitude":64.149841},{"name":"Galerie Crone","radius":5,"significance":"Ipsum","fillKey":"Germany","longitude":13.394375,"latitude":52.506958},{"name":"Galerie Andreas Huber","radius":5,"significance":"Ipsum","fillKey":"Austria","longitude":16.373091,"latitude":48.208467},{"name":"LEVY Galerie","radius":5,"significance":"Ipsum","fillKey":"Germany","longitude":9.978474,"latitude":53.598573},{"name":"Galleri Bo Bjerggaard","radius":5,"significance":"Ipsum","fillKey":"Denmark","longitude":10.333328,"latitude":55.670249},{"name":"Galerie Laurent Godin","radius":5,"significance":"Ipsum","fillKey":"France","longitude":2.3537660000000002,"latitude":48.862634},{"name":"Galleria d'Arte Maggiore G.A.M.","radius":5,"significance":"Ipsum","fillKey":"France","longitude":2.352133,"latitude":48.856506},{"name":"Other Criteria","radius":5,"significance":"Ipsum","fillKey":"GB","longitude":-0.151467,"latitude":51.517044},{"name":"Ronald Feldman Fine Arts","radius":5,"significance":"Ipsum","fillKey":"USA","longitude":-74.001746,"latitude":40.721052},{"name":"Royal Collection Trust","radius":5,"significance":"Ipsum","fillKey":"United Kingdom","longitude":-0.142464,"latitude":51.500155},{"name":"Royal Collection Trust","radius":5,"significance":"Ipsum","fillKey":"England","longitude":-3.174011,"latitude":55.952539},{"name":"Royal Collection Trust","radius":5,"significance":"Ipsum","fillKey":"England","longitude":-0.604397,"latitude":51.483903},{"name":"Royal Collection Trust","radius":5,"significance":"Ipsum","fillKey":"England","longitude":-0.141933,"latitude":51.501371},{"name":"Andréhn-Schiptjenko","radius":5,"significance":"Ipsum","fillKey":"Sweden","longitude":18.037833699999965,"latitude":59.34584859999999},{"name":"Galerie Bob van Orsouw","radius":5,"significance":"Ipsum","fillKey":"Switzerland","longitude":8.524729,"latitude":47.389417},{"name":"Rotwand","radius":5,"significance":"Ipsum","fillKey":"Switzerland","longitude":8.529887,"latitude":47.373586},{"name":"Corkin Gallery","radius":5,"significance":"Ipsum","fillKey":"Canada","longitude":-79.384901,"latitude":43.652921},{"name":"Fleisher/Ollman","radius":5,"significance":"Ipsum","fillKey":"USA","longitude":-75.163789,"latitude":39.952335},{"name":"Amy Wolf Fine Art and Elrick-Manley Fine Art","radius":5,"significance":"Ipsum","fillKey":"USA","longitude":-73.986581,"latitude":40.730599},{"name":"DANESE/COREY","radius":5,"significance":"Ipsum","fillKey":"USA","longitude":-74.00487,"latitude":40.747209},{"name":"Senior & Shopmaker Gallery","radius":5,"significance":"Ipsum","fillKey":"USA","longitude":-73.986581,"latitude":40.730599},{"name":"Sicardi Gallery","radius":5,"significance":"Ipsum","fillKey":"USA","longitude":-95.39773,"latitude":29.738795},{"name":"AI KOWADA GALLERY","radius":5,"significance":"Ipsum","fillKey":"Japan","longitude":139.768522,"latitude":35.680071},{"name":"","radius":5,"significance":"Ipsum","fillKey":"France","longitude":2.354066,"latitude":48.86204},{"name":"JGM. Galerie","radius":5,"significance":"Ipsum","fillKey":"France","longitude":2.356192,"latitude":48.861369},{"name":"Driscoll Babcock Galleries","radius":5,"significance":"Ipsum","fillKey":"USA","longitude":-74.004333,"latitude":40.749549},{"name":"Morgan Lehman Gallery","radius":5,"significance":"Ipsum","fillKey":"United States","longitude":-74.005198,"latitude":40.747349},{"name":"Armand Bartos Fine Art","radius":5,"significance":"Ipsum","fillKey":"United States","longitude":-73.986581,"latitude":40.730599},{"name":"Galerie Sho Contemporary Art","radius":5,"significance":"Ipsum","fillKey":"","longitude":114.158101,"latitude":22.278795},{"name":"Edouard Malingue Gallery","radius":5,"significance":"Ipsum","fillKey":"Hong Kong","longitude":114.162813,"latitude":22.279328},{"name":"Pi ARTWORKS","radius":5,"significance":"Ipsum","fillKey":"Turkey","longitude":28.965165,"latitude":41.009633},{"name":"Gallery Espace","radius":5,"significance":"Ipsum","fillKey":"INDIA ","longitude":77.266719,"latitude":28.560323},{"name":"Seventeen","radius":5,"significance":"Ipsum","fillKey":"GB","longitude":-0.076733,"latitude":51.538301},{"name":"MONITOR","radius":5,"significance":"Ipsum","fillKey":"Italy","longitude":-74.976161,"latitude":39.439271},{"name":"Hales Gallery","radius":5,"significance":"Ipsum","fillKey":"United Kingdom","longitude":-0.12766,"latitude":51.507276},{"name":"James Goodman Gallery","radius":5,"significance":"Ipsum","fillKey":"United States","longitude":-73.986581,"latitude":40.730599},{"name":"Yossi Milo Gallery","radius":5,"significance":"Ipsum","fillKey":"United States","longitude":-73.986581,"latitude":40.730599},{"name":"ONE AND J. Gallery","radius":5,"significance":"Ipsum","fillKey":"Korea","longitude":126.995304,"latitude":37.571082},{"name":"Pierogi","radius":5,"significance":"Ipsum","fillKey":"USA","longitude":-73.949582,"latitude":40.650104},{"name":"Pierogi","radius":5,"significance":"Ipsum","fillKey":"USA","longitude":-73.949582,"latitude":40.650104},{"name":"Platform China","radius":5,"significance":"Ipsum","fillKey":"China","longitude":116.625089,"latitude":40.250538},{"name":"Platform China","radius":5,"significance":"Ipsum","fillKey":"Hong Kong ","longitude":114.241374,"latitude":22.268535},{"name":"Corvi-Mora","radius":5,"significance":"Ipsum","fillKey":"UK","longitude":-0.108137,"latitude":51.491193},{"name":"PRAZ-DELAVALLADE","radius":5,"significance":"Ipsum","fillKey":"France","longitude":2.357566,"latitude":48.86154},{"name":"Galleria Lorcan O'Neill","radius":5,"significance":"Ipsum","fillKey":"Italy","longitude":12.462292,"latitude":41.885457},{"name":"Galerie Thomas Schulte","radius":5,"significance":"Ipsum","fillKey":"Germany","longitude":13.392091,"latitude":52.510166},{"name":"Andersen's Contemporary","radius":5,"significance":"Ipsum","fillKey":"Denmark","longitude":12.637939,"latitude":55.655611},{"name":"Galeria Senda","radius":5,"significance":"Ipsum","fillKey":"ES","longitude":2.163828,"latitude":41.386698},{"name":"Galerie Anne de Villepoix","radius":5,"significance":"Ipsum","fillKey":"France","longitude":2.353576,"latitude":48.863461},{"name":"Loevenbruck","radius":5,"significance":"Ipsum","fillKey":"France","longitude":2.337387,"latitude":48.855355},{"name":"Mazzoleni Galleria d'Arte","radius":5,"significance":"Ipsum","fillKey":"Italy","longitude":7.676513,"latitude":45.068059},{"name":"Josh Lilley","radius":5,"significance":"Ipsum","fillKey":"UK","longitude":-0.140412,"latitude":51.518568},{"name":"","radius":5,"significance":"Ipsum","fillKey":"Switzerland","longitude":8.540443,"latitude":47.368559},{"name":"","radius":5,"significance":"Ipsum","fillKey":"USA","longitude":-73.986581,"latitude":40.730599},{"name":"Rena Bransten Gallery","radius":5,"significance":"Ipsum","fillKey":"USA","longitude":-122.41654,"latitude":37.777317},{"name":"Haines Gallery","radius":5,"significance":"Ipsum","fillKey":"USA","longitude":-73.992083,"latitude":40.719319},{"name":"Whitestone Gallery","radius":5,"significance":"Ipsum","fillKey":"JP","longitude":139.510395,"latitude":35.690041},{"name":"Hamish Morrison Galerie","radius":5,"significance":"Ipsum","fillKey":"Germany","longitude":13.390925,"latitude":52.502734},{"name":"Bruce Silverstein Gallery","radius":5,"significance":"Ipsum","fillKey":"USA","longitude":-74.004662,"latitude":40.748861},{"name":"Alan Koppel Gallery","radius":5,"significance":"Ipsum","fillKey":"USA","longitude":-87.630093,"latitude":41.896981},{"name":"Susanne Vielmetter Los Angeles Projects","radius":5,"significance":"Ipsum","fillKey":"USA","longitude":-118.376212,"latitude":34.031645},{"name":"Pilar Corrias Gallery","radius":5,"significance":"Ipsum","fillKey":"UK","longitude":-0.138846,"latitude":51.51649},{"name":"Luciana Brito Galeria","radius":5,"significance":"Ipsum","fillKey":"Brazil","longitude":-46.633965,"latitude":-23.550328},{"name":"Kalfayan Galleries","radius":5,"significance":"Ipsum","fillKey":"Greece","longitude":23.727984,"latitude":37.984149},{"name":"Kalfayan Galleries","radius":5,"significance":"Ipsum","fillKey":"Greece","longitude":22.935272,"latitude":40.640317},{"name":"Pékin Fine Arts","radius":5,"significance":"Ipsum","fillKey":"Hong Kong","longitude":114.158101,"latitude":22.278795},{"name":"Gallery Isabelle van den Eynde","radius":5,"significance":"Ipsum","fillKey":"United Arab Emirates","longitude":55.296193,"latitude":25.268353},{"name":"Demo","radius":5,"significance":"Ipsum","fillKey":"US","longitude":-73.949582,"latitude":40.650104},{"name":"Leo Koenig Inc.","radius":5,"significance":"Ipsum","fillKey":"USA","longitude":-73.986581,"latitude":40.730599},{"name":"Derek Eller Gallery","radius":5,"significance":"Ipsum","fillKey":"USA","longitude":-74.005591,"latitude":40.751669},{"name":"","radius":5,"significance":"Ipsum","fillKey":"UAE","longitude":31.271832,"latitude":49.487197},{"name":"Carbon 12, Dubai","radius":5,"significance":"Ipsum","fillKey":"UAE","longitude":31.271832,"latitude":49.487197},{"name":"JinTai Art Museum","radius":5,"significance":"Ipsum","fillKey":"CHINA","longitude":104.999927,"latitude":35.000074},{"name":"Kukje Gallery / Tina Kim Gallery","radius":5,"significance":"Ipsum","fillKey":"Korea","longitude":126.995304,"latitude":37.571082},{"name":"Galleria Continua","radius":5,"significance":"Ipsum","fillKey":"Italy","longitude":11.044678,"latitude":43.467523},{"name":"Galleria Continua","radius":5,"significance":"Ipsum","fillKey":"China","longitude":116.625089,"latitude":40.250538},{"name":"Galleria Continua","radius":5,"significance":"Ipsum","fillKey":"France","longitude":-0.86122,"latitude":48.832234},{"name":"Browse & Darby","radius":5,"significance":"Ipsum","fillKey":"UK","longitude":-0.141187,"latitude":51.509987},{"name":"Kerlin Gallery","radius":5,"significance":"Ipsum","fillKey":"Ireland","longitude":-6.260097,"latitude":53.34943},{"name":"HackelBury Fine Art","radius":5,"significance":"Ipsum","fillKey":"United Kingdom","longitude":-0.12766,"latitude":51.507276},{"name":"Durham Press, Inc.","radius":5,"significance":"Ipsum","fillKey":"USA","longitude":-75.227162,"latitude":40.5791},{"name":"","radius":5,"significance":"Ipsum","fillKey":"USA","longitude":-72.329773,"latitude":41.31909},{"name":"Susan Sheehan Gallery","radius":5,"significance":"Ipsum","fillKey":"USA","longitude":-73.986581,"latitude":40.730599},{"name":"Fredericks & Freiser","radius":5,"significance":"Ipsum","fillKey":"USA","longitude":-74.004819,"latitude":40.748739},{"name":"Galerie Koch","radius":5,"significance":"Ipsum","fillKey":"Germany","longitude":9.748026,"latitude":52.375847},{"name":"","radius":5,"significance":"Ipsum","fillKey":"USA","longitude":-73.986581,"latitude":40.730599},{"name":"Sims Reed Gallery","radius":5,"significance":"Ipsum","fillKey":"United Kingdom ","longitude":-0.12766,"latitude":51.507276},{"name":"Jerald Melberg Gallery","radius":5,"significance":"Ipsum","fillKey":"USA","longitude":-80.843127,"latitude":35.227087},{"name":"Hackett | Mill","radius":5,"significance":"Ipsum","fillKey":"USA","longitude":-122.395665,"latitude":37.786819},{"name":"Mireille Mosler Ltd.","radius":5,"significance":"Ipsum","fillKey":"USA","longitude":-73.986581,"latitude":40.730599},{"name":"Crane Kalman Gallery","radius":5,"significance":"Ipsum","fillKey":"UK","longitude":-0.166258,"latitude":51.498215},{"name":"Galerie Eva Presenhuber","radius":5,"significance":"Ipsum","fillKey":"Switzerland","longitude":8.540443,"latitude":47.368559},{"name":"Galerie Eva Presenhuber","radius":5,"significance":"Ipsum","fillKey":"Switzerland","longitude":8.540443,"latitude":47.368559},{"name":"Serpentine Galleries","radius":5,"significance":"Ipsum","fillKey":"England","longitude":-0.12766,"latitude":51.507276},{"name":"Andrew Edlin Gallery","radius":5,"significance":"Ipsum","fillKey":"United States ","longitude":-73.986581,"latitude":40.730599},{"name":"Almine Rech","radius":5,"significance":"Ipsum","fillKey":"Belgium","longitude":4.370038,"latitude":50.81934},{"name":"Anthony Meier Fine Arts","radius":5,"significance":"Ipsum","fillKey":"US","longitude":-122.426681,"latitude":37.789733},{"name":"Chowaiki & Co.","radius":5,"significance":"Ipsum","fillKey":"USA","longitude":-73.986581,"latitude":40.730599},{"name":"","radius":5,"significance":"Ipsum","fillKey":"USA","longitude":-74.005891,"latitude":40.746061},{"name":"Rod Bianco Gallery","radius":5,"significance":"Ipsum","fillKey":"Norway","longitude":10.736003,"latitude":59.912627},{"name":"David Janis Gallery","radius":5,"significance":"Ipsum","fillKey":"USA","longitude":-73.986581,"latitude":40.730599},{"name":"","radius":5,"significance":"Ipsum","fillKey":"United States","longitude":-118.396559,"latitude":34.082573},{"name":"Three Star Books","radius":5,"significance":"Ipsum","fillKey":"France","longitude":2.358941,"latitude":48.830456},{"name":"John Szoke Editions","radius":5,"significance":"Ipsum","fillKey":"United States","longitude":-73.986581,"latitude":40.730599},{"name":"","radius":5,"significance":"Ipsum","fillKey":"United States","longitude":-118.396559,"latitude":34.082573},{"name":"Peter Blum Gallery","radius":5,"significance":"Ipsum","fillKey":"USA","longitude":-73.975076,"latitude":40.763339},{"name":"","radius":5,"significance":"Ipsum","fillKey":"Germany","longitude":13.305608,"latitude":52.503866},{"name":"","radius":5,"significance":"Ipsum","fillKey":"Korea","longitude":127.092867,"latitude":37.463825},{"name":"","radius":5,"significance":"Ipsum","fillKey":"","longitude":69.27739,"latitude":41.294803},{"name":"BISCHOFF/WEISS","radius":5,"significance":"Ipsum","fillKey":"United Kingdom","longitude":-0.144005,"latitude":51.508975},{"name":"Mai 36 Galerie","radius":5,"significance":"Ipsum","fillKey":"Switzerland","longitude":8.547661,"latitude":47.369099},{"name":"Galleria il Ponte","radius":5,"significance":"Ipsum","fillKey":"Italy","longitude":11.255576,"latitude":43.769871},{"name":"","radius":5,"significance":"Ipsum","fillKey":"United States","longitude":-122.419199,"latitude":37.77896},{"name":"Henrique Faria Fine Art","radius":5,"significance":"Ipsum","fillKey":"USA","longitude":-73.986581,"latitude":40.730599},{"name":"Jonathan Boos","radius":5,"significance":"Ipsum","fillKey":"USA","longitude":-73.986581,"latitude":40.730599},{"name":"Jonathan Boos","radius":5,"significance":"Ipsum","fillKey":"USA","longitude":-83.229056,"latitude":42.494895},{"name":"Wetterling Gallery","radius":5,"significance":"Ipsum","fillKey":"Sweden","longitude":18.071094,"latitude":59.325117},{"name":"Opera Gallery","radius":5,"significance":"Ipsum","fillKey":"United Kingdom","longitude":-0.144891,"latitude":51.512645},{"name":"Independent Curators International (ICI) ","radius":5,"significance":"Ipsum","fillKey":"","longitude":-73.986581,"latitude":40.730599},{"name":"Leon Tovar Gallery","radius":5,"significance":"Ipsum","fillKey":"USA","longitude":-73.986581,"latitude":40.730599},{"name":"espaivisor - Galería Visor","radius":5,"significance":"Ipsum","fillKey":"Spain","longitude":-0.375956,"latitude":39.469903},{"name":"Marlborough Chelsea","radius":5,"significance":"Ipsum","fillKey":"USA","longitude":-74.004471,"latitude":40.749593},{"name":"","radius":5,"significance":"Ipsum","fillKey":"USA","longitude":-117.277817,"latitude":32.843925},{"name":"","radius":5,"significance":"Ipsum","fillKey":"USA","longitude":-118.385654,"latitude":34.080698},{"name":"Forum Gallery","radius":5,"significance":"Ipsum","fillKey":"United States","longitude":-73.986581,"latitude":40.730599},{"name":"Walters Art Museum","radius":5,"significance":"Ipsum","fillKey":"USA","longitude":-76.615695,"latitude":39.295934},{"name":"","radius":5,"significance":"Ipsum","fillKey":"USA","longitude":-77.580374,"latitude":43.151585},{"name":"Robert Klein Gallery","radius":5,"significance":"Ipsum","fillKey":"USA","longitude":-71.072684,"latitude":42.352165},{"name":"Gavlak","radius":5,"significance":"Ipsum","fillKey":"United States of America","longitude":-80.042273,"latitude":26.701383},{"name":"Michael Rosenfeld Gallery","radius":5,"significance":"Ipsum","fillKey":"USA","longitude":-73.986581,"latitude":40.730599},{"name":"CONNERSMITH.","radius":5,"significance":"Ipsum","fillKey":"USA","longitude":-77.036646,"latitude":38.894955},{"name":"moniquemeloche","radius":5,"significance":"Ipsum","fillKey":"United States","longitude":-87.624371,"latitude":41.875621},{"name":"Louis Stern Fine Arts","radius":5,"significance":"Ipsum","fillKey":"USA","longitude":-118.387877,"latitude":34.080704},{"name":"Sommer Contemporary Art","radius":5,"significance":"Ipsum","fillKey":"Israel","longitude":34.780527,"latitude":32.080481},{"name":"P.P.O.W","radius":5,"significance":"Ipsum","fillKey":"USA","longitude":-73.986581,"latitude":40.730599},{"name":"Hill Gallery","radius":5,"significance":"Ipsum","fillKey":"USA","longitude":-83.218387,"latitude":42.543582},{"name":"Carl Hammer Gallery","radius":5,"significance":"Ipsum","fillKey":"USA","longitude":-87.624371,"latitude":41.875621},{"name":"Whitestone Gallery","radius":5,"significance":"Ipsum","fillKey":"Japan","longitude":138.031902,"latitude":36.114394},{"name":"Sies + Höke","radius":5,"significance":"Ipsum","fillKey":"Germany","longitude":6.771466,"latitude":51.22067},{"name":"","radius":5,"significance":"Ipsum","fillKey":"UK","longitude":-0.12766,"latitude":51.507276},{"name":"","radius":5,"significance":"Ipsum","fillKey":"Turkey","longitude":28.965165,"latitude":41.009633},{"name":"Kimmerich Gallery","radius":5,"significance":"Ipsum","fillKey":"USA","longitude":-74.003947,"latitude":40.718658},{"name":"","radius":5,"significance":"Ipsum","fillKey":"USA","longitude":-73.986581,"latitude":40.730599},{"name":"Ullens Center for Contemporary Art (UCCA)","radius":5,"significance":"Ipsum","fillKey":"China","longitude":116.625089,"latitude":40.250538},{"name":"Andy Warhol Museum","radius":5,"significance":"Ipsum","fillKey":"USA","longitude":-80.005023,"latitude":40.457351},{"name":"Kavachnina Contemporary","radius":5,"significance":"Ipsum","fillKey":"USA","longitude":-80.196296,"latitude":25.810341},{"name":"","radius":5,"significance":"Ipsum","fillKey":"USA","longitude":-79.990086,"latitude":40.441694},{"name":"Galerie Van Gelder","radius":5,"significance":"Ipsum","fillKey":"Holland","longitude":4.900112,"latitude":52.371009},{"name":"AI KOWADA GALLERY","radius":5,"significance":"Ipsum","fillKey":"China","longitude":121.488892,"latitude":31.225344},{"name":"Eleven Rivington","radius":5,"significance":"Ipsum","fillKey":"USA","longitude":-73.992731,"latitude":40.721196},{"name":"Eleven Rivington","radius":5,"significance":"Ipsum","fillKey":"USA","longitude":-73.992188,"latitude":40.722154},{"name":"Niels Borch Jensen Gallery and Editions","radius":5,"significance":"Ipsum","fillKey":"Denmark","longitude":12.613595,"latitude":55.667827},{"name":"Gary Snyder Gallery","radius":5,"significance":"Ipsum","fillKey":"USA","longitude":-73.986581,"latitude":40.730599},{"name":"Massimo De Carlo","radius":5,"significance":"Ipsum","fillKey":"Italy","longitude":9.190617,"latitude":45.466621},{"name":"New Museum Store","radius":5,"significance":"Ipsum","fillKey":"USA","longitude":-73.99283,"latitude":40.722346},{"name":"","radius":5,"significance":"Ipsum","fillKey":"USA","longitude":-118.495458,"latitude":34.013765},{"name":"","radius":5,"significance":"Ipsum","fillKey":"USA","longitude":-74.002654,"latitude":40.721937},{"name":"Churner and Churner","radius":5,"significance":"Ipsum","fillKey":"USA","longitude":-74.004628,"latitude":40.747227},{"name":"Montclair Art Museum","radius":5,"significance":"Ipsum","fillKey":"USA","longitude":-74.224655,"latitude":40.819129},{"name":"","radius":5,"significance":"Ipsum","fillKey":"United States","longitude":-73.993242,"latitude":40.721462},{"name":"Magnan Metz Gallery","radius":5,"significance":"Ipsum","fillKey":"10001","longitude":-74.003397,"latitude":40.749944},{"name":"AISHO MIURA ARTS","radius":5,"significance":"Ipsum","fillKey":"Japan","longitude":139.768522,"latitude":35.680071},{"name":"","radius":5,"significance":"Ipsum","fillKey":"","longitude":-73.986581,"latitude":40.730599},{"name":"Half Gallery","radius":5,"significance":"Ipsum","fillKey":"USA","longitude":-73.96234,"latitude":40.775613},{"name":"","radius":5,"significance":"Ipsum","fillKey":"","longitude":-73.979084,"latitude":40.758368},{"name":"Kathryn Markel Fine Arts","radius":5,"significance":"Ipsum","fillKey":"United States","longitude":-72.300916,"latitude":40.937878},{"name":"Glass House","radius":5,"significance":"Ipsum","fillKey":"USA","longitude":-73.499901,"latitude":41.145717},{"name":"","radius":5,"significance":"Ipsum","fillKey":"Hong Kong","longitude":114.151556,"latitude":22.285998},{"name":"Gallery Naga","radius":5,"significance":"Ipsum","fillKey":"USA","longitude":-71.074092,"latitude":42.351963},{"name":"","radius":5,"significance":"Ipsum","fillKey":"","longitude":-96.800151,"latitude":32.788233},{"name":"VARIOUS SMALL FIRES","radius":5,"significance":"Ipsum","fillKey":"USA","longitude":-118.242702,"latitude":34.053678},{"name":"","radius":5,"significance":"Ipsum","fillKey":"USA","longitude":-122.307435,"latitude":47.646174},{"name":"","radius":5,"significance":"Ipsum","fillKey":"USA","longitude":-122.330062,"latitude":47.603832},{"name":"C L E A R I N G","radius":5,"significance":"Ipsum","fillKey":"United States","longitude":-73.928673,"latitude":40.708418},{"name":"C L E A R I N G","radius":5,"significance":"Ipsum","fillKey":"Belgium","longitude":4.356636,"latitude":50.834404},{"name":"Zorzini Gallery","radius":5,"significance":"Ipsum","fillKey":"Romania","longitude":26.102744,"latitude":44.436139},{"name":"","radius":5,"significance":"Ipsum","fillKey":"US","longitude":-73.96425,"latitude":40.76991},{"name":"","radius":5,"significance":"Ipsum","fillKey":"USA","longitude":-74.007636,"latitude":40.716342},{"name":"gallery nine5","radius":5,"significance":"Ipsum","fillKey":"","longitude":-73.995265,"latitude":40.721333},{"name":"Louis B. James","radius":5,"significance":"Ipsum","fillKey":"United States","longitude":-73.989814,"latitude":40.718937},{"name":"","radius":5,"significance":"Ipsum","fillKey":"Australia","longitude":151.216454,"latitude":-33.854816},{"name":" Olsen Irwin","radius":5,"significance":"Ipsum","fillKey":"Australia","longitude":151.241389,"latitude":-33.885556},{"name":"","radius":5,"significance":"Ipsum","fillKey":"USA","longitude":-96.800008,"latitude":32.780105},{"name":"Barbara Krakow Gallery","radius":5,"significance":"Ipsum","fillKey":"US","longitude":-71.071529,"latitude":42.352468},{"name":"","radius":5,"significance":"Ipsum","fillKey":"","longitude":-77.036372,"latitude":38.895115},{"name":"Vincent Vallarino Fine Art / McCormick Gallery","radius":5,"significance":"Ipsum","fillKey":"USA","longitude":-73.986581,"latitude":40.730599},{"name":"Vincent Vallarino Fine Art / McCormick Gallery","radius":5,"significance":"Ipsum","fillKey":"USA","longitude":-87.648948,"latitude":41.882872},{"name":"Didier Ltd.","radius":5,"significance":"Ipsum","fillKey":"","longitude":-0.194314,"latitude":51.505842},{"name":"Museo de Arte Contemporáneo de Buenos Aires ","radius":5,"significance":"Ipsum","fillKey":"Argentina","longitude":-58.43561,"latitude":-34.616016},{"name":"","radius":5,"significance":"Ipsum","fillKey":"","longitude":114.160258,"latitude":22.281322},{"name":"Regina Gallery","radius":5,"significance":"Ipsum","fillKey":"","longitude":-3.2765750000000002,"latitude":54.702354},{"name":"Regina Gallery","radius":5,"significance":"Ipsum","fillKey":"Russia","longitude":37.618701,"latitude":55.751615},{"name":"","radius":5,"significance":"Ipsum","fillKey":"USA","longitude":-118.475487,"latitude":34.088506},{"name":"","radius":5,"significance":"Ipsum","fillKey":"United States","longitude":-73.962515,"latitude":40.775955},{"name":"The Still House Group","radius":5,"significance":"Ipsum","fillKey":"USA","longitude":-73.949582,"latitude":40.650104},{"name":"David Benrimon Fine Art","radius":5,"significance":"Ipsum","fillKey":"United States","longitude":-73.986581,"latitude":40.730599},{"name":"","radius":5,"significance":"Ipsum","fillKey":"","longitude":-74.13715,"latitude":42.040448},{"name":"","radius":5,"significance":"Ipsum","fillKey":"US","longitude":-94.157293,"latitude":39.336243},{"name":"Arion Press","radius":5,"significance":"Ipsum","fillKey":"United States","longitude":-122.419199,"latitude":37.77896},{"name":"ClampArt","radius":5,"significance":"Ipsum","fillKey":"USA","longitude":-73.986581,"latitude":40.730599},{"name":"","radius":5,"significance":"Ipsum","fillKey":"United States","longitude":-74.00453,"latitude":40.750217},{"name":"","radius":5,"significance":"Ipsum","fillKey":"United Kingdom","longitude":-0.132185,"latitude":51.516195},{"name":"","radius":5,"significance":"Ipsum","fillKey":"","longitude":-97.732028,"latitude":30.283947},{"name":"Anna Schwartz Gallery","radius":5,"significance":"Ipsum","fillKey":"Australia","longitude":144.96385,"latitude":-37.817388},{"name":"Anna Schwartz Gallery","radius":5,"significance":"Ipsum","fillKey":"Australia","longitude":151.195905,"latitude":-33.891552},{"name":"","radius":5,"significance":"Ipsum","fillKey":"United States","longitude":-74.004349,"latitude":40.748729},{"name":"The Hole","radius":5,"significance":"Ipsum","fillKey":"USA","longitude":-73.992678,"latitude":40.725087},{"name":"Fischbach Gallery","radius":5,"significance":"Ipsum","fillKey":"United States","longitude":-73.986581,"latitude":40.730599},{"name":"","radius":5,"significance":"Ipsum","fillKey":"United States","longitude":-74.003241,"latitude":40.749878},{"name":"Galerie Thomas","radius":5,"significance":"Ipsum","fillKey":"Germany","longitude":11.57374,"latitude":48.14661},{"name":"Gestalten","radius":5,"significance":"Ipsum","fillKey":"Germany","longitude":13.38886,"latitude":52.517036},{"name":"","radius":5,"significance":"Ipsum","fillKey":"United States","longitude":-73.986581,"latitude":40.730599},{"name":"","radius":5,"significance":"Ipsum","fillKey":"South Africa","longitude":18.417248,"latitude":-33.928905},{"name":"","radius":5,"significance":"Ipsum","fillKey":"South Africa","longitude":22.579644000000002,"latitude":-33.993111},{"name":"Whitney Art Party Benefit 2013","radius":5,"significance":"Ipsum","fillKey":"","longitude":-73.986581,"latitude":40.730599},{"name":"","radius":5,"significance":"Ipsum","fillKey":"USA","longitude":-73.986581,"latitude":40.730599},{"name":"The National Exemplar","radius":5,"significance":"Ipsum","fillKey":"USA","longitude":-73.986581,"latitude":40.730599},{"name":"","radius":5,"significance":"Ipsum","fillKey":"CA","longitude":-79.384901,"latitude":43.652921},{"name":"Praxis","radius":5,"significance":"Ipsum","fillKey":"USA","longitude":-74.004367,"latitude":40.749548},{"name":"Carbon 12, Dubai","radius":5,"significance":"Ipsum","fillKey":"UAE","longitude":31.271832,"latitude":49.487197},{"name":"","radius":5,"significance":"Ipsum","fillKey":"Germany","longitude":13.393997,"latitude":52.527676},{"name":"","radius":5,"significance":"Ipsum","fillKey":"","longitude":13.40663,"latitude":52.524787},{"name":"Edwynn Houk Gallery","radius":5,"significance":"Ipsum","fillKey":"United States","longitude":-73.986581,"latitude":40.730599},{"name":"Edwynn Houk Gallery","radius":5,"significance":"Ipsum","fillKey":"Switzerland","longitude":8.534902,"latitude":47.366829},{"name":"SPROVIERI","radius":5,"significance":"Ipsum","fillKey":"UK","longitude":-0.139528,"latitude":51.510751},{"name":"Rubin Museum of Art","radius":5,"significance":"Ipsum","fillKey":"USA","longitude":-73.997738,"latitude":40.740096},{"name":"Adamson Gallery","radius":5,"significance":"Ipsum","fillKey":"USA","longitude":-77.036372,"latitude":38.895115},{"name":"","radius":5,"significance":"Ipsum","fillKey":"Australia","longitude":151.216454,"latitude":-33.854816},{"name":"","radius":5,"significance":"Ipsum","fillKey":"Australia","longitude":144.977972,"latitude":-37.805947},{"name":"Neon Parc","radius":5,"significance":"Ipsum","fillKey":"Australia","longitude":144.96567,"latitude":-37.813489},{"name":"","radius":5,"significance":"Ipsum","fillKey":"China","longitude":116.625089,"latitude":40.250538},{"name":"","radius":5,"significance":"Ipsum","fillKey":"China","longitude":116.742319,"latitude":40.280199},{"name":"","radius":5,"significance":"Ipsum","fillKey":"China","longitude":116.625089,"latitude":40.250538},{"name":"","radius":5,"significance":"Ipsum","fillKey":"Japan","longitude":139.768522,"latitude":35.680071},{"name":"Taka Ishii Gallery","radius":5,"significance":"Ipsum","fillKey":"Japan","longitude":139.816911,"latitude":35.67268},{"name":"Gallery Side 2","radius":5,"significance":"Ipsum","fillKey":"Japan","longitude":139.768522,"latitude":35.680071},{"name":"David Lusk Gallery","radius":5,"significance":"Ipsum","fillKey":"USA","longitude":-89.910756,"latitude":35.117932},{"name":"","radius":5,"significance":"Ipsum","fillKey":"Switzerland","longitude":8.540443,"latitude":47.368559},{"name":"","radius":5,"significance":"Ipsum","fillKey":"Hong Kong","longitude":114.158101,"latitude":22.278795},{"name":"Galerie Hans Mayer","radius":5,"significance":"Ipsum","fillKey":"Germany","longitude":6.776540000000068,"latitude":51.22764},{"name":"","radius":5,"significance":"Ipsum","fillKey":"Switzerland","longitude":8.307319,"latitude":47.062593},{"name":"","radius":5,"significance":"Ipsum","fillKey":"China","longitude":116.625089,"latitude":40.250538},{"name":"","radius":5,"significance":"Ipsum","fillKey":"China","longitude":116.625089,"latitude":40.250538},{"name":"","radius":5,"significance":"Ipsum","fillKey":"China","longitude":113.252996,"latitude":23.122901},{"name":"","radius":5,"significance":"Ipsum","fillKey":"China","longitude":116.625089,"latitude":40.250538},{"name":"","radius":5,"significance":"Ipsum","fillKey":"USA","longitude":-118.396559,"latitude":34.082573},{"name":"","radius":5,"significance":"Ipsum","fillKey":"United Kingdom","longitude":-0.055675,"latitude":51.534515999999996},{"name":"","radius":5,"significance":"Ipsum","fillKey":"GB","longitude":-0.145903,"latitude":51.51253},{"name":"Park Ryu Sook Gallery","radius":5,"significance":"Ipsum","fillKey":"Korea","longitude":126.995304,"latitude":37.571082},{"name":"","radius":5,"significance":"Ipsum","fillKey":"Korea","longitude":126.995304,"latitude":37.571082},{"name":"Johann König","radius":5,"significance":"Ipsum","fillKey":"Germany","longitude":13.400565,"latitude":52.500713},{"name":"","radius":5,"significance":"Ipsum","fillKey":"Germany","longitude":13.38886,"latitude":52.517036},{"name":"","radius":5,"significance":"Ipsum","fillKey":"","longitude":13.419827,"latitude":52.534241},{"name":"Stefan Hildebrandt Gallery ","radius":5,"significance":"Ipsum","fillKey":"Switzerland","longitude":9.826386,"latitude":46.484294},{"name":"JR Studio","radius":5,"significance":"Ipsum","fillKey":"France","longitude":2.394331,"latitude":48.856641},{"name":"Folio Test Partner","radius":5,"significance":"Ipsum","fillKey":"USA","longitude":-73.986581,"latitude":40.730599},{"name":"Jill Newhouse Gallery","radius":5,"significance":"Ipsum","fillKey":"United States","longitude":-73.986581,"latitude":40.730599},{"name":"Carmichael Gallery","radius":5,"significance":"Ipsum","fillKey":"USA","longitude":-118.340549,"latitude":34.039917},{"name":"Alexander Gray Associates","radius":5,"significance":"Ipsum","fillKey":"USA","longitude":-73.986581,"latitude":40.730599},{"name":"Krause Gallery","radius":5,"significance":"Ipsum","fillKey":"United States","longitude":-73.989051,"latitude":40.720649},{"name":"Cooper Cole Gallery","radius":5,"significance":"Ipsum","fillKey":"Canada","longitude":-79.384901,"latitude":43.652921},{"name":"Daniel Faria Gallery","radius":5,"significance":"Ipsum","fillKey":"Canada","longitude":-79.384901,"latitude":43.652921},{"name":"","radius":5,"significance":"Ipsum","fillKey":"United States","longitude":-73.986581,"latitude":40.730599},{"name":"","radius":5,"significance":"Ipsum","fillKey":"China","longitude":116.625089,"latitude":40.250538},{"name":"Chi-Wen Gallery","radius":5,"significance":"Ipsum","fillKey":"Taiwan","longitude":121.5637,"latitude":25.037517},{"name":"","radius":5,"significance":"Ipsum","fillKey":"Hong Kong","longitude":114.158101,"latitude":22.278795},{"name":"","radius":5,"significance":"Ipsum","fillKey":"Hong Kong","longitude":114.153556,"latitude":22.281299},{"name":"","radius":5,"significance":"Ipsum","fillKey":"Japan","longitude":139.768522,"latitude":35.680071},{"name":"","radius":5,"significance":"Ipsum","fillKey":"Japan","longitude":139.768522,"latitude":35.680071},{"name":"","radius":5,"significance":"Ipsum","fillKey":"Japan","longitude":139.768522,"latitude":35.680071},{"name":"Yumiko Chiba Associates","radius":5,"significance":"Ipsum","fillKey":"Japan","longitude":139.239418,"latitude":36.574844},{"name":"Castelli Gallery","radius":5,"significance":"Ipsum","fillKey":"USA","longitude":-73.986581,"latitude":40.730599},{"name":"Paragon","radius":5,"significance":"Ipsum","fillKey":"United Kingdom","longitude":-0.185693,"latitude":51.491788},{"name":"Simon Preston Gallery","radius":5,"significance":"Ipsum","fillKey":"USA","longitude":-73.992325,"latitude":40.718555},{"name":"Richard Telles","radius":5,"significance":"Ipsum","fillKey":"USA","longitude":-118.396559,"latitude":34.082573},{"name":"","radius":5,"significance":"Ipsum","fillKey":"US","longitude":-73.956385,"latitude":40.773635},{"name":"Polígrafa Obra Gráfica","radius":5,"significance":"Ipsum","fillKey":"Spain","longitude":2.170044,"latitude":41.387019},{"name":"","radius":5,"significance":"Ipsum","fillKey":"United Kingdom","longitude":-0.14182,"latitude":51.508927},{"name":"Reception","radius":5,"significance":"Ipsum","fillKey":"Germany","longitude":13.38886,"latitude":52.517036},{"name":"","radius":5,"significance":"Ipsum","fillKey":"United States","longitude":-74.007173,"latitude":40.731184999999996},{"name":"","radius":5,"significance":"Ipsum","fillKey":"USA","longitude":-74.004506,"latitude":40.748607},{"name":"Leo Xu Projects","radius":5,"significance":"Ipsum","fillKey":"China","longitude":121.488892,"latitude":31.225344},{"name":"Luhring Augustine","radius":5,"significance":"Ipsum","fillKey":"USA","longitude":-74.004558,"latitude":40.748817},{"name":"Luhring Augustine","radius":5,"significance":"Ipsum","fillKey":"USA","longitude":-73.931485,"latitude":40.707301},{"name":"Kent Fine Art","radius":5,"significance":"Ipsum","fillKey":"USA","longitude":-73.986581,"latitude":40.730599},{"name":"Misa Shin Gallery","radius":5,"significance":"Ipsum","fillKey":"Japan","longitude":139.768522,"latitude":35.680071},{"name":"Alison Jacques Gallery","radius":5,"significance":"Ipsum","fillKey":"UK","longitude":-0.132185,"latitude":51.516195},{"name":"Gerald Peters Gallery Santa Fe","radius":5,"significance":"Ipsum","fillKey":"United States","longitude":-105.933914,"latitude":35.682765},{"name":"MUJIN-TO Production","radius":5,"significance":"Ipsum","fillKey":"JP","longitude":139.510395,"latitude":35.690041},{"name":"Melas Papadopoulos","radius":5,"significance":"Ipsum","fillKey":"Greece","longitude":23.727984,"latitude":37.984149},{"name":"Ota Fine Arts","radius":5,"significance":"Ipsum","fillKey":"Japan","longitude":139.753005,"latitude":35.682382},{"name":"Quint Gallery","radius":5,"significance":"Ipsum","fillKey":"United States","longitude":-117.272,"latitude":32.838951},{"name":"Light Work","radius":5,"significance":"Ipsum","fillKey":"USA","longitude":-76.131802,"latitude":43.040414},{"name":"","radius":5,"significance":"Ipsum","fillKey":"","longitude":-73.964958,"latitude":40.772263},{"name":"","radius":5,"significance":"Ipsum","fillKey":"","longitude":-73.961113,"latitude":40.77688},{"name":"Vadehra Art Gallery","radius":5,"significance":"Ipsum","fillKey":"India","longitude":77.215956,"latitude":28.613897},{"name":"Kavi Gupta CHICAGO I BERLIN","radius":5,"significance":"Ipsum","fillKey":"USA","longitude":-87.648948,"latitude":41.882872},{"name":"","radius":5,"significance":"Ipsum","fillKey":"Korea","longitude":126.995304,"latitude":37.571082},{"name":"","radius":5,"significance":"Ipsum","fillKey":"FRANCE","longitude":2.352133,"latitude":48.856506},{"name":"XL Gallery","radius":5,"significance":"Ipsum","fillKey":"Russia","longitude":37.618704,"latitude":55.751634},{"name":"Tomio Koyama Gallery","radius":5,"significance":"Ipsum","fillKey":"Japan","longitude":139.510398,"latitude":35.690034},{"name":"Tomio Koyama Gallery","radius":5,"significance":"Ipsum","fillKey":"Singapore","longitude":103.852038,"latitude":1.290453},{"name":"Tomio Koyama Gallery","radius":5,"significance":"Ipsum","fillKey":"Japan","longitude":139.753005,"latitude":35.682382},{"name":"Moss Bureau","radius":5,"significance":"Ipsum","fillKey":"USA","longitude":-73.986581,"latitude":40.730599},{"name":"","radius":5,"significance":"Ipsum","fillKey":"France","longitude":2.371657,"latitude":48.82589},{"name":"SCAI The Bathhouse","radius":5,"significance":"Ipsum","fillKey":"JP","longitude":139.510395,"latitude":35.690041},{"name":"ShugoArts","radius":5,"significance":"Ipsum","fillKey":"Japan","longitude":139.768522,"latitude":35.680071},{"name":"","radius":5,"significance":"Ipsum","fillKey":"Greece","longitude":23.727984,"latitude":37.984149},{"name":"","radius":5,"significance":"Ipsum","fillKey":"Philippines","longitude":122.73121,"latitude":12.750349},{"name":"Galerie Mezzanin","radius":5,"significance":"Ipsum","fillKey":"Austria","longitude":16.373091,"latitude":48.208467},{"name":"","radius":5,"significance":"Ipsum","fillKey":"England","longitude":-0.13956,"latitude":51.523306},{"name":"","radius":5,"significance":"Ipsum","fillKey":"Australia","longitude":144.963161,"latitude":-37.814218},{"name":"","radius":5,"significance":"Ipsum","fillKey":"South Korea","longitude":126.995304,"latitude":37.571082},{"name":"","radius":5,"significance":"Ipsum","fillKey":"India","longitude":72.832711,"latitude":18.95238},{"name":"","radius":5,"significance":"Ipsum","fillKey":"India","longitude":77.590361,"latitude":12.9794},{"name":"","radius":5,"significance":"Ipsum","fillKey":"United States","longitude":-74.003931,"latitude":40.748553},{"name":"","radius":5,"significance":"Ipsum","fillKey":"Republic of China","longitude":121.533556,"latitude":24.791009},{"name":"mother's tankstation","radius":5,"significance":"Ipsum","fillKey":"Ireland","longitude":-6.260097,"latitude":53.34943},{"name":"","radius":5,"significance":"Ipsum","fillKey":"United States","longitude":-73.986581,"latitude":40.730599},{"name":"","radius":5,"significance":"Ipsum","fillKey":"India","longitude":78.667743,"latitude":22.351115},{"name":"","radius":5,"significance":"Ipsum","fillKey":"Japan","longitude":139.768522,"latitude":35.680071},{"name":"","radius":5,"significance":"Ipsum","fillKey":"Switzerland","longitude":8.540443,"latitude":47.368559},{"name":"Mendes Wood DM","radius":5,"significance":"Ipsum","fillKey":"Brazil","longitude":-49.023235,"latitude":-21.954981},{"name":"","radius":5,"significance":"Ipsum","fillKey":"Germany","longitude":13.38886,"latitude":52.517036},{"name":"Jorge Mara - La Ruche","radius":5,"significance":"Ipsum","fillKey":"Argentina","longitude":-58.445979,"latitude":-34.612869},{"name":"","radius":5,"significance":"Ipsum","fillKey":"The Netherlands","longitude":5.748082,"latitude":52.50017},{"name":"","radius":5,"significance":"Ipsum","fillKey":"The Netherlands","longitude":4.900112,"latitude":52.371009},{"name":"","radius":5,"significance":"Ipsum","fillKey":"Australia","longitude":151.216454,"latitude":-33.854816},{"name":"","radius":5,"significance":"Ipsum","fillKey":"Malaysia","longitude":101.700953,"latitude":3.157098},{"name":"","radius":5,"significance":"Ipsum","fillKey":"France","longitude":2.352133,"latitude":48.856506},{"name":"","radius":5,"significance":"Ipsum","fillKey":"Spain","longitude":-3.703582,"latitude":40.416705},{"name":"Mayoral Galeria d'Art","radius":5,"significance":"Ipsum","fillKey":"Spain","longitude":2.163845,"latitude":41.386662},{"name":"","radius":5,"significance":"Ipsum","fillKey":"Turkey","longitude":28.991696,"latitude":41.051686},{"name":"","radius":5,"significance":"Ipsum","fillKey":"Turkey","longitude":28.965165,"latitude":41.009633},{"name":"","radius":5,"significance":"Ipsum","fillKey":"Japan","longitude":139.768522,"latitude":35.680071},{"name":"The Drawing Room","radius":5,"significance":"Ipsum","fillKey":"Philippines","longitude":121.023532,"latitude":14.556885},{"name":"","radius":5,"significance":"Ipsum","fillKey":"Germany","longitude":13.381768,"latitude":52.498407},{"name":"ARNDT","radius":5,"significance":"Ipsum","fillKey":"Germany","longitude":13.364604,"latitude":52.502175},{"name":"Hill Smith Gallery","radius":5,"significance":"Ipsum","fillKey":"Australia","longitude":138.605775,"latitude":-34.925475},{"name":"Barbara Mathes Gallery","radius":5,"significance":"Ipsum","fillKey":"United States","longitude":-73.962408,"latitude":40.777237},{"name":"Art Plural Gallery","radius":5,"significance":"Ipsum","fillKey":"Singapore","longitude":103.852888,"latitude":1.29093},{"name":"","radius":5,"significance":"Ipsum","fillKey":"Switzerland","longitude":8.527545,"latitude":47.387802},{"name":"","radius":5,"significance":"Ipsum","fillKey":"","longitude":55.296193,"latitude":25.268353},{"name":"1950","radius":5,"significance":"Ipsum","fillKey":"10001","longitude":-74.005958,"latitude":40.751819},{"name":"Grey Area","radius":5,"significance":"Ipsum","fillKey":"United States","longitude":-73.949582,"latitude":40.650104},{"name":"","radius":5,"significance":"Ipsum","fillKey":"Denmark","longitude":12.570072,"latitude":55.686724},{"name":"","radius":5,"significance":"Ipsum","fillKey":"United Kingdom","longitude":-0.136565,"latitude":51.516978},{"name":"","radius":5,"significance":"Ipsum","fillKey":"USA","longitude":-74.008297,"latitude":40.730522},{"name":"","radius":5,"significance":"Ipsum","fillKey":"","longitude":-118.396559,"latitude":34.082573},{"name":"","radius":5,"significance":"Ipsum","fillKey":"UK","longitude":-0.141594,"latitude":51.518398},{"name":"","radius":5,"significance":"Ipsum","fillKey":"Italy","longitude":9.18338,"latitude":45.482743},{"name":"Vohn Gallery","radius":5,"significance":"Ipsum","fillKey":"USA","longitude":-74.003403,"latitude":40.719888},{"name":"MCLEMOI GALLERY","radius":5,"significance":"Ipsum","fillKey":"Australia","longitude":151.200768,"latitude":-33.887173},{"name":"","radius":5,"significance":"Ipsum","fillKey":"Sweden","longitude":18.071094,"latitude":59.325117},{"name":"","radius":5,"significance":"Ipsum","fillKey":"Germany","longitude":13.397852,"latitude":52.506246},{"name":"Fraenkel Gallery","radius":5,"significance":"Ipsum","fillKey":"94108","longitude":-122.404237,"latitude":37.787784},{"name":"","radius":5,"significance":"Ipsum","fillKey":"India","longitude":77.590361,"latitude":12.9794},{"name":"","radius":5,"significance":"Ipsum","fillKey":"USA","longitude":-92.036233,"latitude":30.230564},{"name":"","radius":5,"significance":"Ipsum","fillKey":"United States","longitude":-73.975279,"latitude":40.763424},{"name":"Waddington Custot Galleries","radius":5,"significance":"Ipsum","fillKey":"United Kingdom","longitude":-0.141187,"latitude":51.509987},{"name":"Galleria O. Rome","radius":5,"significance":"Ipsum","fillKey":"Italy","longitude":-74.976161,"latitude":39.439271},{"name":"Niels Borch Jensen Gallery and Editions","radius":5,"significance":"Ipsum","fillKey":"Germany","longitude":13.38886,"latitude":52.517036},{"name":"Gallery Skape","radius":5,"significance":"Ipsum","fillKey":"South Korea","longitude":126.995304,"latitude":37.571082},{"name":"Altman Siegel","radius":5,"significance":"Ipsum","fillKey":"","longitude":-122.395665,"latitude":37.786819},{"name":"The Third Line","radius":5,"significance":"Ipsum","fillKey":"UAE","longitude":31.271832,"latitude":49.487197},{"name":"Pace Gallery","radius":5,"significance":"Ipsum","fillKey":"United States","longitude":-74.003639,"latitude":40.74905},{"name":"Pace Gallery","radius":5,"significance":"Ipsum","fillKey":"United Kingdom","longitude":-0.140569,"latitude":51.509849},{"name":"Opera Gallery","radius":5,"significance":"Ipsum","fillKey":"France","longitude":2.328822,"latitude":48.866583},{"name":"Batch Upload Test Partner","radius":5,"significance":"Ipsum","fillKey":"","longitude":-95.975032,"latitude":46.863114},{"name":"Clic Gallery","radius":5,"significance":"Ipsum","fillKey":"United States of America","longitude":-73.986581,"latitude":40.730599},{"name":"Sears-Peyton Gallery","radius":5,"significance":"Ipsum","fillKey":"US","longitude":-73.986581,"latitude":40.730599},{"name":"Garis & Hahn","radius":5,"significance":"Ipsum","fillKey":"USA","longitude":-73.992488,"latitude":40.723341},{"name":"Sperone Westwater","radius":5,"significance":"Ipsum","fillKey":"USA","longitude":-73.99257,"latitude":40.723151},